% program   : RTKPOST ver.2.4.3 b34
% inp file  : C:\Users\gorta.DUDOSG\Desktop\Учёба\#старое\GNSS\2 семестр\Задание 14\Новая папка\ramo0320.22o
% inp file  : C:\Users\gorta.DUDOSG\Desktop\Учёба\#старое\GNSS\2 семестр\Задание 14\Новая папка\drag0320.22o
% inp file  : C:\Users\gorta.DUDOSG\Desktop\Учёба\#старое\GNSS\2 семестр\Задание 14\Новая папка\brdc0320.22n
% obs start : 2022/02/01 00:00:00.0 GPST (week2195 172800.0s)
% obs end   : 2022/02/01 23:59:30.0 GPST (week2195 259170.0s)
% pos mode  : Static
% freqs     : L1+2+3+4+5
% solution  : Combined
% elev mask : 10.0 deg
% dynamics  : off
% tidecorr  : off
% ionos opt : Broadcast
% tropo opt : OFF
% ephemeris : Broadcast
% navi sys  : GPS GLONASS Galileo QZSS BDS NavIC SBAS
% amb res   : Continuous
% amb glo   : ON
% val thres : 3.0
% antenna1  :                       ( 0.0000  0.0000  0.0030)
% antenna2  :                       ( 0.0000  0.0000  0.0000)
% ref pos   :  4432980.3096   3149432.3273   3322110.7809
%
% (x/y/z-ecef=WGS84,Q=1:fix,2:float,3:sbas,4:dgps,5:single,6:ppp,ns=# of satellites)
%  GPST                      x-ecef(m)      y-ecef(m)      z-ecef(m)   Q  ns   sdx(m)   sdy(m)   sdz(m)  sdxy(m)  sdyz(m)  sdzx(m) age(s)  ratio
2022/02/01 00:59:30.000   4514721.2129   3133507.8475   3228024.7292   2   9   0.0005   0.0006   0.0003  -0.0002   0.0002   0.0002 -30.00    1.1
2022/02/01 01:00:00.000   4514721.2129   3133507.8475   3228024.7292   2   9   0.0005   0.0006   0.0003  -0.0002   0.0002   0.0002   0.00    1.3
2022/02/01 01:00:30.000   4514721.2128   3133507.8475   3228024.7291   2   9   0.0005   0.0006   0.0003  -0.0002   0.0002   0.0002   0.00    1.2
2022/02/01 01:01:00.000   4514721.2127   3133507.8475   3228024.7290   2   9   0.0005   0.0006   0.0003  -0.0002   0.0002   0.0002   0.00    1.2
2022/02/01 01:01:30.000   4514721.2127   3133507.8475   3228024.7289   2   9   0.0005   0.0006   0.0003  -0.0002   0.0002   0.0002   0.00    1.2
2022/02/01 01:02:00.000   4514721.2126   3133507.8475   3228024.7289   2   9   0.0005   0.0006   0.0003  -0.0002   0.0002   0.0002   0.00    1.3
2022/02/01 01:02:30.000   4514721.2125   3133507.8475   3228024.7288   2   9   0.0005   0.0006   0.0003  -0.0002   0.0002   0.0002   0.00    1.3
2022/02/01 01:03:00.000   4514721.2125   3133507.8474   3228024.7287   2   9   0.0005   0.0006   0.0003  -0.0002   0.0002   0.0002   0.00    1.4
2022/02/01 01:03:30.000   4514721.2124   3133507.8474   3228024.7286   2   9   0.0005   0.0006   0.0003  -0.0002   0.0002   0.0002   0.00    1.5
2022/02/01 01:04:00.000   4514721.2123   3133507.8474   3228024.7285   2   9   0.0005   0.0006   0.0003  -0.0002   0.0002   0.0002   0.00    1.7
2022/02/01 01:04:30.000   4514721.2123   3133507.8474   3228024.7284   2   8   0.0005   0.0006   0.0003  -0.0002   0.0002   0.0002   0.00    2.1
2022/02/01 01:05:00.000   4514721.2122   3133507.8473   3228024.7283   2   8   0.0005   0.0006   0.0003  -0.0002   0.0002   0.0002   0.00    2.3
2022/02/01 01:05:30.000   4514721.2121   3133507.8473   3228024.7282   2   8   0.0005   0.0006   0.0003  -0.0002   0.0002   0.0002   0.00    2.6
2022/02/01 01:06:00.000   4514721.2121   3133507.8473   3228024.7281   2   8   0.0005   0.0006   0.0003  -0.0002   0.0002   0.0002   0.00    2.9
2022/02/01 01:06:30.000   4514721.4776   3133508.0674   3228025.0051   1   8   0.0023   0.0019   0.0015   0.0018   0.0010   0.0014   0.00    3.3
2022/02/01 01:07:00.000   4514721.4774   3133508.0678   3228025.0053   1   8   0.0023   0.0018   0.0015   0.0017   0.0010   0.0014   0.00    3.7
2022/02/01 01:07:30.000   4514721.4770   3133508.0680   3228025.0054   1   8   0.0022   0.0018   0.0014   0.0017   0.0010   0.0013   0.00    3.9
2022/02/01 01:08:00.000   4514721.4766   3133508.0679   3228025.0057   1   8   0.0021   0.0017   0.0014   0.0016   0.0009   0.0013   0.00    4.2
2022/02/01 01:08:30.000   4514721.4764   3133508.0681   3228025.0059   1   8   0.0021   0.0017   0.0014   0.0016   0.0009   0.0012   0.00    4.5
2022/02/01 01:09:00.000   4514721.4757   3133508.0683   3228025.0060   1   8   0.0020   0.0016   0.0013   0.0015   0.0009   0.0012   0.00    4.8
2022/02/01 01:09:30.000   4514721.4747   3133508.0682   3228025.0058   1   8   0.0019   0.0016   0.0013   0.0015   0.0009   0.0012   0.00    5.0
2022/02/01 01:10:00.000   4514721.4741   3133508.0685   3228025.0055   1   8   0.0019   0.0016   0.0013   0.0014   0.0008   0.0012   0.00    5.3
2022/02/01 01:10:30.000   4514721.4735   3133508.0688   3228025.0052   1   8   0.0019   0.0015   0.0012   0.0014   0.0008   0.0011   0.00    5.5
2022/02/01 01:11:00.000   4514721.4732   3133508.0693   3228025.0049   1   8   0.0018   0.0015   0.0012   0.0014   0.0008   0.0011   0.00    5.5
2022/02/01 01:11:30.000   4514721.4730   3133508.0696   3228025.0045   1   8   0.0018   0.0015   0.0012   0.0014   0.0008   0.0011   0.00    5.5
2022/02/01 01:12:00.000   4514721.4725   3133508.0701   3228025.0042   1   8   0.0017   0.0014   0.0012   0.0013   0.0008   0.0011   0.00    5.5
2022/02/01 01:12:30.000   4514721.4721   3133508.0706   3228025.0036   1   8   0.0017   0.0014   0.0011   0.0013   0.0008   0.0010   0.00    5.5
2022/02/01 01:13:00.000   4514721.4716   3133508.0710   3228025.0028   1   8   0.0017   0.0014   0.0011   0.0013   0.0007   0.0010   0.00    5.5
2022/02/01 01:13:30.000   4514721.4713   3133508.0716   3228025.0022   1   8   0.0016   0.0014   0.0011   0.0013   0.0007   0.0010   0.00    5.5
2022/02/01 01:14:00.000   4514721.4711   3133508.0720   3228025.0016   1   8   0.0016   0.0013   0.0011   0.0012   0.0007   0.0010   0.00    5.5
2022/02/01 01:14:30.000   4514721.4708   3133508.0727   3228025.0009   1   8   0.0016   0.0013   0.0011   0.0012   0.0007   0.0010   0.00    5.5
2022/02/01 01:15:00.000   4514721.4705   3133508.0731   3228025.0003   1   8   0.0016   0.0013   0.0011   0.0012   0.0007   0.0010   0.00    5.4
2022/02/01 01:15:30.000   4514721.4699   3133508.0735   3228024.9996   1   8   0.0015   0.0013   0.0010   0.0012   0.0007   0.0009   0.00    5.4
2022/02/01 01:16:00.000   4514721.4692   3133508.0738   3228024.9988   1   8   0.0015   0.0013   0.0010   0.0012   0.0007   0.0009   0.00    5.3
2022/02/01 01:16:30.000   4514721.4685   3133508.0741   3228024.9980   1   8   0.0015   0.0012   0.0010   0.0011   0.0007   0.0009   0.00    5.2
2022/02/01 01:17:00.000   4514721.4679   3133508.0745   3228024.9972   1   8   0.0015   0.0012   0.0010   0.0011   0.0007   0.0009   0.00    5.0
2022/02/01 01:17:30.000   4514721.4672   3133508.0747   3228024.9964   1   8   0.0014   0.0012   0.0010   0.0011   0.0007   0.0009   0.00    4.9
2022/02/01 01:18:00.000   4514721.4666   3133508.0750   3228024.9957   1   8   0.0014   0.0012   0.0010   0.0011   0.0006   0.0009   0.00    4.8
2022/02/01 01:18:30.000   4514721.4659   3133508.0752   3228024.9950   1   8   0.0014   0.0012   0.0010   0.0011   0.0006   0.0009   0.00    4.6
2022/02/01 01:19:00.000   4514721.4652   3133508.0752   3228024.9943   1   8   0.0014   0.0012   0.0010   0.0011   0.0006   0.0009   0.00    4.5
2022/02/01 01:19:30.000   4514721.4646   3133508.0753   3228024.9937   1   8   0.0014   0.0012   0.0010   0.0011   0.0006   0.0009   0.00    4.4
2022/02/01 01:20:00.000   4514721.2109   3133507.8458   3228024.7254   2   9   0.0005   0.0006   0.0003  -0.0002   0.0002   0.0002   0.00    1.0
2022/02/01 01:20:30.000   4514721.2108   3133507.8457   3228024.7253   2   9   0.0005   0.0006   0.0003  -0.0002   0.0002   0.0002   0.00    1.0
2022/02/01 01:21:00.000   4514721.2108   3133507.8456   3228024.7252   2   9   0.0005   0.0006   0.0003  -0.0002   0.0002   0.0002   0.00    1.1
2022/02/01 01:21:30.001   4514721.2108   3133507.8456   3228024.7251   2   9   0.0005   0.0006   0.0003  -0.0002   0.0002   0.0002   0.00    1.1
2022/02/01 01:22:00.000   4514721.2108   3133507.8455   3228024.7251   2   9   0.0005   0.0006   0.0003  -0.0002   0.0002   0.0002   0.00    1.1
2022/02/01 01:22:30.000   4514721.2107   3133507.8454   3228024.7250   2   9   0.0005   0.0006   0.0003  -0.0002   0.0002   0.0002   0.00    1.1
2022/02/01 01:23:00.000   4514721.2107   3133507.8453   3228024.7249   2   9   0.0005   0.0006   0.0003  -0.0002   0.0002   0.0002   0.00    1.2
2022/02/01 01:23:30.000   4514721.2107   3133507.8452   3228024.7249   2   9   0.0005   0.0006   0.0003  -0.0002   0.0002   0.0002   0.00    1.2
2022/02/01 01:24:00.000   4514721.2106   3133507.8451   3228024.7248   2   9   0.0005   0.0006   0.0003  -0.0002   0.0002   0.0002   0.00    1.2
2022/02/01 01:24:30.000   4514721.2106   3133507.8450   3228024.7247   2   9   0.0005   0.0006   0.0003  -0.0002   0.0002   0.0002   0.00    1.2
2022/02/01 01:25:00.000   4514721.2106   3133507.8450   3228024.7247   2   9   0.0005   0.0006   0.0003  -0.0002   0.0002   0.0002   0.00    1.3
2022/02/01 01:25:30.000   4514721.2106   3133507.8449   3228024.7246   2   9   0.0005   0.0006   0.0003  -0.0002   0.0002   0.0002   0.00    1.3
2022/02/01 01:26:00.000   4514721.2105   3133507.8448   3228024.7245   2   9   0.0005   0.0006   0.0003  -0.0002   0.0002   0.0002   0.00    1.3
2022/02/01 01:26:30.000   4514721.2105   3133507.8447   3228024.7245   2   9   0.0005   0.0006   0.0003  -0.0002   0.0002   0.0002   0.00    1.4
2022/02/01 01:27:00.000   4514721.2105   3133507.8446   3228024.7244   2   9   0.0005   0.0006   0.0003  -0.0002   0.0002   0.0002   0.00    1.4
2022/02/01 01:27:30.000   4514721.2104   3133507.8446   3228024.7243   2   9   0.0005   0.0006   0.0003  -0.0002   0.0002   0.0002   0.00    1.4
2022/02/01 01:28:00.000   4514721.2104   3133507.8445   3228024.7242   2   9   0.0005   0.0006   0.0003  -0.0002   0.0002   0.0002   0.00    1.4
2022/02/01 01:28:30.000   4514721.2103   3133507.8444   3228024.7241   2   9   0.0005   0.0006   0.0003  -0.0002   0.0002   0.0002   0.00    1.5
2022/02/01 01:29:00.000   4514721.2103   3133507.8442   3228024.7240   2   9   0.0005   0.0006   0.0003  -0.0002   0.0002   0.0002   0.00    1.5
2022/02/01 01:29:30.000   4514721.2103   3133507.8441   3228024.7240   2   9   0.0005   0.0006   0.0003  -0.0002   0.0002   0.0002   0.00    1.5
2022/02/01 01:30:00.000   4514721.2102   3133507.8440   3228024.7239   2   9   0.0005   0.0006   0.0003  -0.0002   0.0002   0.0002   0.00    1.6
2022/02/01 01:30:30.000   4514721.2102   3133507.8439   3228024.7238   2   9   0.0005   0.0006   0.0003  -0.0002   0.0002   0.0002   0.00    1.6
2022/02/01 01:31:00.000   4514721.2102   3133507.8438   3228024.7237   2   9   0.0005   0.0006   0.0003  -0.0002   0.0002   0.0002   0.00    1.6
2022/02/01 01:31:30.000   4514721.2101   3133507.8437   3228024.7237   2   9   0.0005   0.0006   0.0003  -0.0002   0.0002   0.0002   0.00    1.6
2022/02/01 01:32:00.000   4514721.2101   3133507.8435   3228024.7236   2   9   0.0005   0.0006   0.0003  -0.0002   0.0002   0.0002   0.00    1.6
2022/02/01 01:32:30.000   4514721.2101   3133507.8434   3228024.7235   2   9   0.0005   0.0006   0.0003  -0.0002   0.0002   0.0002   0.00    1.6
2022/02/01 01:33:00.000   4514721.2101   3133507.8433   3228024.7234   2   9   0.0005   0.0006   0.0003  -0.0002   0.0002   0.0002   0.00    1.6
2022/02/01 01:33:30.000   4514721.2100   3133507.8432   3228024.7234   2   9   0.0005   0.0006   0.0003  -0.0002   0.0002   0.0002   0.00    1.6
2022/02/01 01:34:00.000   4514721.2100   3133507.8430   3228024.7233   2   9   0.0005   0.0006   0.0003  -0.0002   0.0002   0.0002   0.00    1.6
2022/02/01 01:34:30.000   4514721.2100   3133507.8429   3228024.7232   2   9   0.0005   0.0006   0.0003  -0.0002   0.0002   0.0002   0.00    1.6
2022/02/01 01:35:00.000   4514721.2100   3133507.8427   3228024.7231   2   9   0.0005   0.0006   0.0003  -0.0002   0.0002   0.0002   0.00    1.6
2022/02/01 01:35:30.000   4514721.2100   3133507.8426   3228024.7231   2   9   0.0005   0.0006   0.0003  -0.0002   0.0002   0.0002   0.00    1.6
2022/02/01 01:36:00.000   4514721.2100   3133507.8424   3228024.7230   2   9   0.0005   0.0006   0.0003  -0.0002   0.0002   0.0002   0.00    1.6
2022/02/01 01:36:30.000   4514721.2099   3133507.8423   3228024.7229   2   9   0.0005   0.0006   0.0003  -0.0002   0.0002   0.0002   0.00    1.7
2022/02/01 01:37:00.000   4514721.2099   3133507.8421   3228024.7228   2   9   0.0005   0.0006   0.0003  -0.0002   0.0002   0.0002   0.00    1.7
2022/02/01 01:37:30.000   4514721.2099   3133507.8419   3228024.7228   2   9   0.0005   0.0006   0.0003  -0.0002   0.0002   0.0002   0.00    1.7
2022/02/01 01:38:00.000   4514721.2100   3133507.8417   3228024.7227   2   9   0.0005   0.0006   0.0003  -0.0002   0.0002   0.0002   0.00    1.7
2022/02/01 01:38:30.000   4514721.2100   3133507.8415   3228024.7226   2   9   0.0005   0.0006   0.0003  -0.0002   0.0002   0.0002   0.00    1.7
2022/02/01 01:39:00.000   4514721.2100   3133507.8413   3228024.7226   2   9   0.0005   0.0006   0.0003  -0.0002   0.0002   0.0002   0.00    1.7
2022/02/01 01:39:30.000   4514721.2100   3133507.8411   3228024.7225   2   9   0.0005   0.0006   0.0003  -0.0002   0.0002   0.0002   0.00    1.7
2022/02/01 01:40:00.000   4514721.2101   3133507.8409   3228024.7224   2   9   0.0005   0.0006   0.0003  -0.0002   0.0002   0.0002   0.00    1.7
2022/02/01 01:40:30.000   4514721.2101   3133507.8407   3228024.7224   2   9   0.0005   0.0006   0.0003  -0.0002   0.0002   0.0002   0.00    1.7
2022/02/01 01:41:00.000   4514721.2101   3133507.8404   3228024.7223   2   9   0.0005   0.0006   0.0003  -0.0002   0.0002   0.0002   0.00    1.7
2022/02/01 01:41:30.000   4514721.2102   3133507.8402   3228024.7222   2   9   0.0005   0.0006   0.0003  -0.0002   0.0002   0.0002   0.00    1.7
2022/02/01 01:42:00.000   4514721.2103   3133507.8400   3228024.7222   2   9   0.0005   0.0006   0.0003  -0.0002   0.0002   0.0002   0.00    1.8
2022/02/01 01:42:30.000   4514721.2104   3133507.8397   3228024.7221   2   9   0.0005   0.0006   0.0003  -0.0002   0.0002   0.0002   0.00    1.8
2022/02/01 01:43:00.000   4514721.2104   3133507.8395   3228024.7220   2   9   0.0005   0.0006   0.0003  -0.0002   0.0002   0.0002   0.00    1.8
2022/02/01 01:43:30.000   4514721.2105   3133507.8393   3228024.7220   2   9   0.0005   0.0006   0.0003  -0.0002   0.0002   0.0002   0.00    1.8
2022/02/01 01:44:00.000   4514721.2106   3133507.8391   3228024.7219   2   9   0.0005   0.0006   0.0003  -0.0002   0.0002   0.0002   0.00    1.8
2022/02/01 01:44:30.000   4514721.2107   3133507.8389   3228024.7218   2   9   0.0005   0.0006   0.0003  -0.0002   0.0002   0.0002   0.00    1.9
2022/02/01 01:45:00.000   4514721.2108   3133507.8387   3228024.7218   2   9   0.0005   0.0006   0.0003  -0.0002   0.0002   0.0002   0.00    1.9
2022/02/01 01:45:30.000   4514721.2109   3133507.8385   3228024.7217   2   9   0.0005   0.0006   0.0003  -0.0002   0.0002   0.0002   0.00    1.9
2022/02/01 01:46:00.000   4514721.2110   3133507.8383   3228024.7216   2   9   0.0005   0.0006   0.0003  -0.0002   0.0002   0.0002   0.00    1.9
2022/02/01 01:46:30.000   4514721.2110   3133507.8382   3228024.7216   2   9   0.0005   0.0006   0.0003  -0.0002   0.0002   0.0002   0.00    1.9
2022/02/01 01:47:00.000   4514721.2111   3133507.8380   3228024.7215   2   9   0.0005   0.0006   0.0003  -0.0002   0.0002   0.0002   0.00    2.0
2022/02/01 01:47:30.000   4514721.2112   3133507.8379   3228024.7215   2   9   0.0005   0.0006   0.0003  -0.0002   0.0002   0.0002   0.00    2.0
2022/02/01 01:48:00.000   4514721.2113   3133507.8378   3228024.7214   2   9   0.0005   0.0006   0.0003  -0.0002   0.0002   0.0002   0.00    2.0
2022/02/01 01:48:30.000   4514721.2114   3133507.8376   3228024.7214   2   9   0.0005   0.0006   0.0003  -0.0002   0.0002   0.0002   0.00    2.1
2022/02/01 01:49:00.000   4514721.2115   3133507.8375   3228024.7214   2   9   0.0005   0.0006   0.0003  -0.0002   0.0002   0.0002   0.00    2.1
2022/02/01 01:49:30.000   4514721.2116   3133507.8374   3228024.7213   2   9   0.0005   0.0006   0.0003  -0.0002   0.0002   0.0002   0.00    2.2
2022/02/01 01:50:00.000   4514721.2118   3133507.8372   3228024.7213   2   9   0.0005   0.0006   0.0003  -0.0002   0.0002   0.0002   0.00    2.2
2022/02/01 01:50:30.000   4514721.2119   3133507.8371   3228024.7213   2   9   0.0005   0.0006   0.0003  -0.0002   0.0002   0.0002   0.00    2.3
2022/02/01 01:51:00.000   4514721.2120   3133507.8370   3228024.7212   2   9   0.0005   0.0006   0.0003  -0.0002   0.0002   0.0002   0.00    2.3
2022/02/01 01:51:30.000   4514721.2121   3133507.8368   3228024.7212   2   9   0.0005   0.0006   0.0003  -0.0002   0.0002   0.0002   0.00    2.3
2022/02/01 01:52:00.000   4514721.2123   3133507.8367   3228024.7211   2   9   0.0005   0.0006   0.0003  -0.0002   0.0002   0.0002   0.00    2.4
2022/02/01 01:52:30.000   4514721.2124   3133507.8365   3228024.7211   2   9   0.0005   0.0006   0.0003  -0.0002   0.0002   0.0002   0.00    2.4
2022/02/01 01:53:00.000   4514721.2125   3133507.8363   3228024.7210   2   9   0.0005   0.0006   0.0003  -0.0002   0.0002   0.0002   0.00    1.0
2022/02/01 01:53:30.000   4514721.2127   3133507.8361   3228024.7210   2   9   0.0005   0.0006   0.0003  -0.0002   0.0002   0.0002   0.00    2.5
2022/02/01 01:54:00.000   4514721.2128   3133507.8358   3228024.7209   2   9   0.0005   0.0006   0.0003  -0.0002   0.0002   0.0002   0.00    2.5
2022/02/01 01:54:30.000   4514721.2130   3133507.8356   3228024.7209   2   8   0.0005   0.0006   0.0003  -0.0002   0.0002   0.0002   0.00    2.5
2022/02/01 01:55:00.000   4514721.2131   3133507.8353   3228024.7208   2   8   0.0005   0.0006   0.0003  -0.0002   0.0002   0.0002   0.00    2.5
2022/02/01 01:55:30.000   4514721.2133   3133507.8350   3228024.7207   2   8   0.0005   0.0006   0.0003  -0.0002   0.0002   0.0002   0.00    2.5
2022/02/01 01:56:00.000   4514721.2134   3133507.8347   3228024.7206   2   7   0.0005   0.0006   0.0003  -0.0002   0.0002   0.0002   0.00    2.6
2022/02/01 01:56:30.000   4514721.2135   3133507.8344   3228024.7206   2   7   0.0005   0.0006   0.0003  -0.0002   0.0002   0.0002   0.00    2.6
2022/02/01 01:57:00.000   4514721.2137   3133507.8341   3228024.7205   2   7   0.0005   0.0006   0.0003  -0.0002   0.0002   0.0002   0.00    2.6
2022/02/01 01:57:30.000   4514721.2138   3133507.8338   3228024.7204   2   7   0.0005   0.0006   0.0003  -0.0002   0.0002   0.0002   0.00    2.6
2022/02/01 01:58:00.000   4514721.2139   3133507.8334   3228024.7203   2   7   0.0005   0.0006   0.0003  -0.0002   0.0002   0.0002   0.00    2.5
2022/02/01 01:58:30.000   4514721.2141   3133507.8331   3228024.7202   2   7   0.0005   0.0006   0.0003  -0.0002   0.0002   0.0002   0.00    2.5
2022/02/01 01:59:00.000   4514721.2142   3133507.8327   3228024.7201   2   7   0.0005   0.0006   0.0003  -0.0002   0.0002   0.0002   0.00    2.5
2022/02/01 01:59:30.000   4514721.2143   3133507.8324   3228024.7200   2   7   0.0005   0.0006   0.0003  -0.0002   0.0002   0.0002   0.00    2.5
2022/02/01 02:00:00.000   4514721.2144   3133507.8320   3228024.7199   2   7   0.0005   0.0006   0.0003  -0.0002   0.0002   0.0002   0.00    2.5
2022/02/01 02:00:30.000   4514721.2145   3133507.8316   3228024.7198   2   7   0.0005   0.0006   0.0003  -0.0002   0.0002   0.0002   0.00    2.5
2022/02/01 02:01:00.000   4514721.2146   3133507.8313   3228024.7197   2   7   0.0005   0.0006   0.0003  -0.0002   0.0002   0.0002   0.00    2.5
2022/02/01 02:01:30.000   4514721.2147   3133507.8310   3228024.7196   2   7   0.0005   0.0006   0.0003  -0.0002   0.0002   0.0002   0.00    2.5
2022/02/01 02:02:00.000   4514721.2148   3133507.8307   3228024.7196   2   8   0.0005   0.0006   0.0003  -0.0002   0.0002   0.0002   0.00    1.0
2022/02/01 02:02:30.000   4514721.2149   3133507.8304   3228024.7195   2   8   0.0005   0.0006   0.0003  -0.0002   0.0002   0.0002   0.00    1.0
2022/02/01 02:03:00.000   4514721.2150   3133507.8302   3228024.7194   2   8   0.0005   0.0006   0.0003  -0.0002   0.0002   0.0002   0.00    1.0
2022/02/01 02:03:30.000   4514721.2150   3133507.8300   3228024.7193   2   8   0.0005   0.0006   0.0003  -0.0002   0.0002   0.0002   0.00    1.0
2022/02/01 02:04:00.000   4514721.2151   3133507.8298   3228024.7193   2   8   0.0005   0.0006   0.0003  -0.0002   0.0002   0.0002   0.00    1.0
2022/02/01 02:04:30.000   4514721.2151   3133507.8296   3228024.7192   2   8   0.0005   0.0006   0.0003  -0.0002   0.0002   0.0002   0.00    1.0
2022/02/01 02:05:00.000   4514721.2151   3133507.8294   3228024.7191   2   8   0.0005   0.0006   0.0003  -0.0002   0.0002   0.0002   0.00    1.0
2022/02/01 02:05:30.000   4514721.2152   3133507.8293   3228024.7191   2   8   0.0005   0.0006   0.0003  -0.0002   0.0002   0.0002   0.00    1.0
2022/02/01 02:06:00.000   4514721.2152   3133507.8291   3228024.7190   2   8   0.0005   0.0006   0.0003  -0.0002   0.0002   0.0002   0.00    1.0
2022/02/01 02:06:30.000   4514721.2152   3133507.8290   3228024.7190   2   8   0.0005   0.0006   0.0003  -0.0002   0.0002   0.0002   0.00    1.0
2022/02/01 02:07:00.000   4514721.2153   3133507.8289   3228024.7189   2   8   0.0005   0.0006   0.0003  -0.0002   0.0002   0.0002   0.00    1.0
2022/02/01 02:07:30.000   4514721.2153   3133507.8288   3228024.7189   2   8   0.0005   0.0006   0.0003  -0.0002   0.0002   0.0002   0.00    1.0
2022/02/01 02:08:00.000   4514721.2153   3133507.8288   3228024.7188   2   8   0.0005   0.0006   0.0003  -0.0002   0.0002   0.0002   0.00    1.0
2022/02/01 02:08:30.000   4514721.2153   3133507.8287   3228024.7188   2   8   0.0005   0.0006   0.0003  -0.0002   0.0002   0.0002   0.00    1.0
2022/02/01 02:09:00.000   4514721.2153   3133507.8286   3228024.7188   2   8   0.0005   0.0006   0.0003  -0.0002   0.0002   0.0002   0.00    1.0
2022/02/01 02:09:30.000   4514721.2154   3133507.8286   3228024.7188   2   8   0.0005   0.0006   0.0003  -0.0002   0.0002   0.0002   0.00    1.0
2022/02/01 02:10:00.000   4514721.2153   3133507.8286   3228024.7188   2   8   0.0005   0.0006   0.0003  -0.0002   0.0002   0.0002   0.00    1.0
2022/02/01 02:10:30.000   4514721.2153   3133507.8287   3228024.7188   2   8   0.0005   0.0006   0.0003  -0.0002   0.0002   0.0002   0.00    1.0
2022/02/01 02:11:00.000   4514721.2153   3133507.8287   3228024.7187   2   8   0.0005   0.0006   0.0003  -0.0002   0.0002   0.0002   0.00    1.0
2022/02/01 02:11:30.000   4514721.2152   3133507.8288   3228024.7187   2   8   0.0005   0.0006   0.0003  -0.0002   0.0002   0.0002   0.00    1.0
2022/02/01 02:12:00.000   4514721.2152   3133507.8290   3228024.7187   2   8   0.0005   0.0006   0.0003  -0.0002   0.0002   0.0002   0.00    1.0
2022/02/01 02:12:30.000   4514721.2151   3133507.8291   3228024.7187   2   8   0.0005   0.0006   0.0003  -0.0002   0.0002   0.0002   0.00    1.1
2022/02/01 02:13:00.000   4514721.2150   3133507.8293   3228024.7187   2   8   0.0005   0.0006   0.0003  -0.0002   0.0002   0.0002   0.00    1.1
2022/02/01 02:13:30.000   4514721.2150   3133507.8295   3228024.7187   2   8   0.0005   0.0006   0.0003  -0.0002   0.0002   0.0002   0.00    1.1
2022/02/01 02:14:00.000   4514721.2149   3133507.8297   3228024.7187   2   8   0.0005   0.0006   0.0003  -0.0002   0.0002   0.0002   0.00    1.1
2022/02/01 02:14:30.000   4514721.2149   3133507.8299   3228024.7187   2   8   0.0005   0.0006   0.0003  -0.0002   0.0002   0.0002   0.00    1.1
2022/02/01 02:15:00.000   4514721.2148   3133507.8301   3228024.7187   2   8   0.0005   0.0006   0.0003  -0.0002   0.0002   0.0002   0.00    1.1
2022/02/01 02:15:30.000   4514721.2148   3133507.8304   3228024.7188   2   8   0.0005   0.0006   0.0003  -0.0002   0.0002   0.0002   0.00    1.1
2022/02/01 02:16:00.000   4514721.2147   3133507.8306   3228024.7188   2   8   0.0005   0.0006   0.0003  -0.0002   0.0002   0.0002   0.00    1.1
2022/02/01 02:16:30.000   4514721.2146   3133507.8309   3228024.7188   2   8   0.0005   0.0006   0.0003  -0.0002   0.0002   0.0002   0.00    1.1
2022/02/01 02:17:00.000   4514721.2146   3133507.8312   3228024.7188   2   8   0.0005   0.0006   0.0003  -0.0002   0.0002   0.0002   0.00    1.1
2022/02/01 02:17:30.000   4514721.2145   3133507.8314   3228024.7189   2   8   0.0005   0.0006   0.0003  -0.0002   0.0002   0.0002   0.00    1.1
2022/02/01 02:18:00.000   4514721.2145   3133507.8317   3228024.7189   2   8   0.0005   0.0006   0.0003  -0.0002   0.0002   0.0002   0.00    1.1
2022/02/01 02:18:30.000   4514721.2144   3133507.8320   3228024.7190   2   8   0.0005   0.0006   0.0003  -0.0002   0.0002   0.0002   0.00    1.1
2022/02/01 02:19:00.000   4514721.2143   3133507.8323   3228024.7190   2   8   0.0005   0.0006   0.0003  -0.0002   0.0002   0.0002   0.00    1.2
2022/02/01 02:19:30.000   4514721.2143   3133507.8325   3228024.7190   2   8   0.0005   0.0006   0.0003  -0.0002   0.0002   0.0002   0.00    1.2
2022/02/01 02:20:00.000   4514721.2142   3133507.8328   3228024.7191   2   8   0.0005   0.0006   0.0003  -0.0002   0.0002   0.0002   0.00    1.2
2022/02/01 02:20:30.000   4514721.2142   3133507.8331   3228024.7191   2   8   0.0005   0.0006   0.0003  -0.0002   0.0002   0.0002   0.00    1.2
2022/02/01 02:21:00.000   4514721.2141   3133507.8334   3228024.7191   2   8   0.0005   0.0006   0.0003  -0.0002   0.0002   0.0002   0.00    1.2
2022/02/01 02:21:30.000   4514721.2141   3133507.8336   3228024.7191   2   8   0.0005   0.0006   0.0003  -0.0002   0.0002   0.0002   0.00    1.2
2022/02/01 02:22:00.000   4514721.2140   3133507.8338   3228024.7192   2   8   0.0005   0.0006   0.0003  -0.0002   0.0002   0.0002   0.00    1.2
2022/02/01 02:22:30.000   4514721.2140   3133507.8340   3228024.7192   2   8   0.0005   0.0006   0.0003  -0.0002   0.0002   0.0002   0.00    1.2
2022/02/01 02:23:00.000   4514721.2139   3133507.8342   3228024.7192   2   8   0.0005   0.0006   0.0003  -0.0002   0.0002   0.0002   0.00    1.2
2022/02/01 02:23:30.000   4514721.2138   3133507.8344   3228024.7192   2   8   0.0005   0.0006   0.0003  -0.0002   0.0002   0.0002   0.00    1.2
2022/02/01 02:24:00.000   4514721.2138   3133507.8346   3228024.7192   2   8   0.0005   0.0006   0.0003  -0.0002   0.0002   0.0002   0.00    1.2
2022/02/01 02:24:30.000   4514721.2137   3133507.8348   3228024.7192   2   8   0.0005   0.0006   0.0003  -0.0002   0.0002   0.0002   0.00    1.2
2022/02/01 02:25:00.000   4514721.2137   3133507.8349   3228024.7192   2   8   0.0005   0.0006   0.0003  -0.0002   0.0002   0.0002   0.00    1.2
2022/02/01 02:25:30.000   4514721.2137   3133507.8351   3228024.7191   2   8   0.0005   0.0006   0.0003  -0.0002   0.0002   0.0002   0.00    1.3
2022/02/01 02:26:00.000   4514721.2136   3133507.8352   3228024.7191   2   8   0.0005   0.0006   0.0003  -0.0002   0.0002   0.0002   0.00    1.3
2022/02/01 02:26:30.000   4514721.2136   3133507.8354   3228024.7191   2   8   0.0005   0.0006   0.0003  -0.0002   0.0002   0.0002   0.00    1.3
2022/02/01 02:27:00.000   4514721.2135   3133507.8356   3228024.7191   2   8   0.0005   0.0006   0.0003  -0.0002   0.0002   0.0002   0.00    1.3
2022/02/01 02:27:30.000   4514721.2134   3133507.8357   3228024.7191   2   8   0.0005   0.0006   0.0003  -0.0002   0.0002   0.0002   0.00    1.3
2022/02/01 02:28:00.000   4514721.2134   3133507.8359   3228024.7191   2   8   0.0005   0.0006   0.0003  -0.0002   0.0002   0.0002   0.00    1.3
2022/02/01 02:28:30.000   4514721.2133   3133507.8360   3228024.7191   2   8   0.0005   0.0006   0.0003  -0.0002   0.0002   0.0002   0.00    1.4
2022/02/01 02:29:00.000   4514721.2133   3133507.8362   3228024.7191   2   8   0.0005   0.0006   0.0003  -0.0002   0.0002   0.0002   0.00    1.4
2022/02/01 02:29:30.000   4514721.2132   3133507.8363   3228024.7191   2   8   0.0005   0.0006   0.0003  -0.0002   0.0002   0.0002   0.00    1.4
2022/02/01 02:30:00.000   4514721.2132   3133507.8364   3228024.7191   2   8   0.0005   0.0006   0.0003  -0.0002   0.0002   0.0002   0.00    1.4
2022/02/01 02:30:30.000   4514721.2131   3133507.8365   3228024.7191   2   8   0.0005   0.0006   0.0003  -0.0002   0.0002   0.0002   0.00    1.4
2022/02/01 02:31:00.000   4514721.2131   3133507.8365   3228024.7190   2   8   0.0005   0.0006   0.0003  -0.0002   0.0002   0.0002   0.00    1.5
2022/02/01 02:31:30.000   4514721.2130   3133507.8366   3228024.7190   2   8   0.0005   0.0006   0.0003  -0.0002   0.0002   0.0002   0.00    1.5
2022/02/01 02:32:00.000   4514721.2130   3133507.8366   3228024.7189   2   8   0.0005   0.0006   0.0003  -0.0002   0.0002   0.0002   0.00    1.5
2022/02/01 02:32:30.000   4514721.2129   3133507.8366   3228024.7189   2   8   0.0005   0.0006   0.0003  -0.0002   0.0002   0.0002   0.00    1.0
2022/02/01 02:33:00.000   4514721.2129   3133507.8367   3228024.7189   2   8   0.0005   0.0006   0.0003  -0.0002   0.0002   0.0002   0.00    1.0
2022/02/01 02:33:30.000   4514721.2129   3133507.8367   3228024.7188   2   8   0.0005   0.0006   0.0003  -0.0002   0.0002   0.0002   0.00    1.0
2022/02/01 02:34:00.000   4514721.2128   3133507.8368   3228024.7188   2   8   0.0005   0.0006   0.0003  -0.0002   0.0002   0.0002   0.00    1.0
2022/02/01 02:34:30.000   4514721.2128   3133507.8368   3228024.7187   2   8   0.0005   0.0006   0.0003  -0.0002   0.0002   0.0002   0.00    1.0
2022/02/01 02:35:00.000   4514721.2128   3133507.8368   3228024.7187   2   8   0.0005   0.0006   0.0003  -0.0002   0.0002   0.0002   0.00    1.0
2022/02/01 02:35:30.000   4514721.2127   3133507.8368   3228024.7187   2   8   0.0005   0.0006   0.0003  -0.0002   0.0002   0.0002   0.00    1.0
2022/02/01 02:36:00.000   4514721.2127   3133507.8368   3228024.7186   2   9   0.0005   0.0006   0.0003  -0.0002   0.0002   0.0002   0.00    1.0
2022/02/01 02:36:30.000   4514721.2127   3133507.8368   3228024.7186   2   9   0.0005   0.0006   0.0003  -0.0002   0.0002   0.0002   0.00    1.0
2022/02/01 02:37:00.000   4514721.2127   3133507.8368   3228024.7185   2   9   0.0005   0.0006   0.0003  -0.0002   0.0002   0.0002   0.00    1.0
2022/02/01 02:37:30.000   4514721.2127   3133507.8368   3228024.7185   2   9   0.0005   0.0006   0.0003  -0.0002   0.0002   0.0002   0.00    1.0
2022/02/01 02:38:00.000   4514721.2127   3133507.8367   3228024.7184   2   9   0.0005   0.0006   0.0003  -0.0002   0.0002   0.0002   0.00    1.0
2022/02/01 02:38:30.000   4514721.2127   3133507.8367   3228024.7184   2   9   0.0005   0.0006   0.0003  -0.0002   0.0002   0.0002   0.00    1.0
2022/02/01 02:39:00.000   4514721.2127   3133507.8367   3228024.7184   2   8   0.0005   0.0006   0.0003  -0.0002   0.0002   0.0002   0.00    1.0
2022/02/01 02:39:30.000   4514721.2127   3133507.8367   3228024.7184   2   8   0.0005   0.0006   0.0003  -0.0002   0.0002   0.0002   0.00    1.0
2022/02/01 02:40:00.000   4514721.2127   3133507.8367   3228024.7184   2   8   0.0005   0.0006   0.0003  -0.0002   0.0002   0.0002   0.00    1.0
2022/02/01 02:40:30.000   4514721.2128   3133507.8366   3228024.7184   2   8   0.0005   0.0006   0.0003  -0.0002   0.0002   0.0002   0.00    1.0
2022/02/01 02:41:00.000   4514721.2128   3133507.8366   3228024.7183   2   8   0.0005   0.0006   0.0003  -0.0002   0.0002   0.0002   0.00    1.0
2022/02/01 02:41:30.000   4514721.2128   3133507.8366   3228024.7183   2   8   0.0005   0.0006   0.0003  -0.0002   0.0002   0.0002   0.00    1.0
2022/02/01 02:42:00.000   4514721.2129   3133507.8366   3228024.7183   2   8   0.0005   0.0006   0.0003  -0.0002   0.0002   0.0002   0.00    1.0
2022/02/01 02:42:30.000   4514721.2129   3133507.8366   3228024.7183   2   8   0.0005   0.0006   0.0003  -0.0002   0.0002   0.0002   0.00    1.0
2022/02/01 02:43:00.000   4514721.2129   3133507.8366   3228024.7183   2   8   0.0005   0.0006   0.0003  -0.0002   0.0002   0.0002   0.00    1.1
2022/02/01 02:43:30.000   4514721.2129   3133507.8366   3228024.7183   2   8   0.0005   0.0006   0.0003  -0.0002   0.0002   0.0002   0.00    1.1
2022/02/01 02:44:00.000   4514721.2130   3133507.8366   3228024.7183   2   8   0.0005   0.0006   0.0003  -0.0002   0.0002   0.0002   0.00    1.1
2022/02/01 02:44:30.000   4514721.2130   3133507.8366   3228024.7183   2   8   0.0005   0.0006   0.0003  -0.0002   0.0002   0.0002   0.00    1.1
2022/02/01 02:45:00.000   4514721.2130   3133507.8366   3228024.7183   2   8   0.0005   0.0006   0.0003  -0.0002   0.0002   0.0002   0.00    1.1
2022/02/01 02:45:30.000   4514721.2131   3133507.8366   3228024.7183   2   8   0.0005   0.0006   0.0003  -0.0002   0.0002   0.0002   0.00    1.2
2022/02/01 02:46:00.000   4514721.2131   3133507.8366   3228024.7183   2   8   0.0005   0.0006   0.0003  -0.0002   0.0002   0.0002   0.00    1.2
2022/02/01 02:46:30.000   4514721.2131   3133507.8366   3228024.7183   2   8   0.0005   0.0006   0.0003  -0.0002   0.0002   0.0002   0.00    1.2
2022/02/01 02:47:00.000   4514721.2132   3133507.8366   3228024.7183   2   8   0.0005   0.0006   0.0003  -0.0002   0.0002   0.0002   0.00    1.2
2022/02/01 02:47:30.000   4514721.2132   3133507.8365   3228024.7183   2   8   0.0005   0.0006   0.0003  -0.0002   0.0002   0.0002   0.00    1.2
2022/02/01 02:48:00.000   4514721.2133   3133507.8365   3228024.7182   2   8   0.0005   0.0006   0.0003  -0.0002   0.0002   0.0002   0.00    1.3
2022/02/01 02:48:30.000   4514721.2133   3133507.8365   3228024.7182   2   8   0.0005   0.0006   0.0003  -0.0002   0.0002   0.0002   0.00    1.3
2022/02/01 02:49:00.000   4514721.2133   3133507.8364   3228024.7182   2   8   0.0005   0.0006   0.0003  -0.0002   0.0002   0.0002   0.00    1.3
2022/02/01 02:49:30.000   4514721.2134   3133507.8364   3228024.7182   2   8   0.0005   0.0006   0.0003  -0.0002   0.0002   0.0002   0.00    1.3
2022/02/01 02:50:00.000   4514721.2134   3133507.8364   3228024.7181   2   8   0.0005   0.0006   0.0003  -0.0002   0.0002   0.0002   0.00    1.3
2022/02/01 02:50:30.000   4514721.2134   3133507.8363   3228024.7181   2   8   0.0005   0.0006   0.0003  -0.0002   0.0002   0.0002   0.00    1.3
2022/02/01 02:51:00.000   4514721.2134   3133507.8363   3228024.7181   2   8   0.0005   0.0006   0.0003  -0.0002   0.0002   0.0002   0.00    1.4
2022/02/01 02:51:30.000   4514721.2135   3133507.8363   3228024.7181   2   8   0.0005   0.0006   0.0003  -0.0002   0.0002   0.0002   0.00    1.4
2022/02/01 02:52:00.000   4514721.2135   3133507.8363   3228024.7181   2   9   0.0005   0.0006   0.0003  -0.0002   0.0002   0.0002   0.00    1.0
2022/02/01 02:52:30.000   4514721.2135   3133507.8363   3228024.7181   2   9   0.0005   0.0006   0.0003  -0.0002   0.0002   0.0002   0.00    1.0
2022/02/01 02:53:00.000   4514721.2136   3133507.8363   3228024.7181   2   9   0.0005   0.0006   0.0003  -0.0002   0.0002   0.0002   0.00    1.0
2022/02/01 02:53:30.000   4514721.2136   3133507.8364   3228024.7181   2   9   0.0005   0.0006   0.0003  -0.0002   0.0002   0.0002   0.00    1.0
2022/02/01 02:54:00.000   4514721.2136   3133507.8364   3228024.7181   2   9   0.0005   0.0006   0.0003  -0.0002   0.0002   0.0002   0.00    1.0
2022/02/01 02:54:30.000   4514721.2136   3133507.8365   3228024.7181   2   9   0.0005   0.0006   0.0003  -0.0002   0.0002   0.0002   0.00    1.0
2022/02/01 02:55:00.000   4514721.2136   3133507.8366   3228024.7182   2   9   0.0005   0.0006   0.0003  -0.0002   0.0002   0.0002   0.00    1.0
2022/02/01 02:55:30.000   4514721.2136   3133507.8366   3228024.7182   2   9   0.0005   0.0006   0.0003  -0.0002   0.0002   0.0002   0.00    1.1
2022/02/01 02:56:00.000   4514721.2136   3133507.8366   3228024.7182   2   9   0.0005   0.0006   0.0003  -0.0002   0.0002   0.0002   0.00    1.1
2022/02/01 02:56:30.000   4514721.2136   3133507.8366   3228024.7182   2   9   0.0005   0.0006   0.0003  -0.0002   0.0002   0.0002   0.00    1.1
2022/02/01 02:57:00.000   4514721.2136   3133507.8367   3228024.7183   2   9   0.0005   0.0006   0.0003  -0.0002   0.0002   0.0002   0.00    1.1
2022/02/01 02:57:30.000   4514721.2136   3133507.8366   3228024.7183   2   9   0.0005   0.0006   0.0003  -0.0002   0.0002   0.0002   0.00    1.1
2022/02/01 02:58:00.000   4514721.2136   3133507.8366   3228024.7183   2   9   0.0005   0.0006   0.0003  -0.0002   0.0002   0.0002   0.00    1.1
2022/02/01 02:58:30.000   4514721.2136   3133507.8366   3228024.7183   2   9   0.0005   0.0006   0.0003  -0.0002   0.0002   0.0002   0.00    1.1
2022/02/01 02:59:00.000   4514721.2136   3133507.8366   3228024.7183   2   9   0.0005   0.0006   0.0003  -0.0002   0.0002   0.0002   0.00    1.1
2022/02/01 02:59:30.000   4514721.2136   3133507.8366   3228024.7184   2   9   0.0005   0.0006   0.0003  -0.0002   0.0002   0.0002   0.00    1.2
2022/02/01 03:00:00.000   4514721.2136   3133507.8367   3228024.7184   2   9   0.0005   0.0006   0.0003  -0.0002   0.0002   0.0002   0.00    1.2
2022/02/01 03:00:30.000   4514721.2136   3133507.8367   3228024.7184   2   9   0.0005   0.0006   0.0003  -0.0002   0.0002   0.0002   0.00    1.2
2022/02/01 03:01:00.000   4514721.2136   3133507.8367   3228024.7184   2   9   0.0005   0.0006   0.0003  -0.0002   0.0002   0.0002   0.00    1.2
2022/02/01 03:01:30.000   4514721.2136   3133507.8367   3228024.7184   2   9   0.0005   0.0006   0.0003  -0.0002   0.0002   0.0002   0.00    1.3
2022/02/01 03:02:00.000   4514721.2136   3133507.8367   3228024.7185   2   9   0.0005   0.0006   0.0003  -0.0002   0.0002   0.0002   0.00    1.3
2022/02/01 03:02:30.000   4514721.2136   3133507.8367   3228024.7185   2   9   0.0005   0.0006   0.0003  -0.0002   0.0002   0.0002   0.00    1.3
2022/02/01 03:03:00.000   4514721.2136   3133507.8367   3228024.7185   2   9   0.0005   0.0006   0.0003  -0.0002   0.0002   0.0002   0.00    1.3
2022/02/01 03:03:30.000   4514721.2135   3133507.8367   3228024.7186   2   9   0.0005   0.0006   0.0003  -0.0002   0.0002   0.0002   0.00    1.4
2022/02/01 03:04:00.000   4514721.2135   3133507.8367   3228024.7186   2   9   0.0005   0.0006   0.0003  -0.0002   0.0002   0.0002   0.00    1.4
2022/02/01 03:04:30.000   4514721.2135   3133507.8367   3228024.7186   2   9   0.0005   0.0006   0.0003  -0.0002   0.0002   0.0002   0.00    1.4
2022/02/01 03:05:00.000   4514721.2135   3133507.8367   3228024.7186   2   9   0.0005   0.0006   0.0003  -0.0002   0.0002   0.0002   0.00    1.5
2022/02/01 03:05:30.000   4514721.2135   3133507.8367   3228024.7187   2   9   0.0005   0.0006   0.0003  -0.0002   0.0002   0.0002   0.00    1.5
2022/02/01 03:06:00.000   4514721.2134   3133507.8367   3228024.7187   2   9   0.0005   0.0006   0.0003  -0.0002   0.0002   0.0002   0.00    1.6
2022/02/01 03:06:30.000   4514721.2134   3133507.8367   3228024.7188   2   9   0.0005   0.0006   0.0003  -0.0002   0.0002   0.0002   0.00    1.6
2022/02/01 03:07:00.000   4514721.2133   3133507.8367   3228024.7188   2   9   0.0005   0.0006   0.0003  -0.0002   0.0002   0.0002   0.00    1.6
2022/02/01 03:07:30.000   4514721.2133   3133507.8368   3228024.7189   2   9   0.0005   0.0006   0.0003  -0.0002   0.0002   0.0002   0.00    1.7
2022/02/01 03:08:00.000   4514721.2132   3133507.8369   3228024.7189   2   9   0.0005   0.0006   0.0003  -0.0002   0.0002   0.0002   0.00    1.7
2022/02/01 03:08:30.000   4514721.2131   3133507.8370   3228024.7190   2   9   0.0005   0.0006   0.0003  -0.0002   0.0002   0.0002   0.00    1.8
2022/02/01 03:09:00.000   4514721.2131   3133507.8370   3228024.7191   2   9   0.0005   0.0006   0.0003  -0.0002   0.0002   0.0002   0.00    1.8
2022/02/01 03:09:30.000   4514721.2130   3133507.8371   3228024.7192   2   9   0.0005   0.0006   0.0003  -0.0002   0.0002   0.0002   0.00    1.9
2022/02/01 03:10:00.000   4514721.2129   3133507.8372   3228024.7192   2   9   0.0005   0.0006   0.0003  -0.0002   0.0002   0.0002   0.00    1.9
2022/02/01 03:10:30.000   4514721.2128   3133507.8372   3228024.7193   2   9   0.0005   0.0006   0.0003  -0.0002   0.0002   0.0002   0.00    2.0
2022/02/01 03:11:00.000   4514721.2128   3133507.8373   3228024.7193   2   9   0.0005   0.0006   0.0003  -0.0002   0.0002   0.0002   0.00    2.0
2022/02/01 03:11:30.000   4514721.2127   3133507.8373   3228024.7193   2   9   0.0005   0.0006   0.0003  -0.0002   0.0002   0.0002   0.00    2.1
2022/02/01 03:12:00.000   4514721.2126   3133507.8373   3228024.7194   2   9   0.0005   0.0006   0.0003  -0.0002   0.0002   0.0002   0.00    2.1
2022/02/01 03:12:30.000   4514721.2125   3133507.8374   3228024.7194   2   9   0.0005   0.0006   0.0003  -0.0002   0.0002   0.0002   0.00    2.1
2022/02/01 03:13:00.000   4514721.2125   3133507.8374   3228024.7194   2   9   0.0005   0.0006   0.0003  -0.0002   0.0002   0.0002   0.00    2.2
2022/02/01 03:13:30.000   4514721.2124   3133507.8374   3228024.7195   2   9   0.0005   0.0006   0.0003  -0.0002   0.0002   0.0002   0.00    2.2
2022/02/01 03:14:00.000   4514721.2123   3133507.8375   3228024.7195   2   9   0.0005   0.0006   0.0003  -0.0002   0.0002   0.0002   0.00    2.3
2022/02/01 03:14:30.000   4514721.2123   3133507.8375   3228024.7195   2  10   0.0005   0.0006   0.0003  -0.0002   0.0002   0.0002   0.00    1.0
2022/02/01 03:15:00.000   4514721.2122   3133507.8375   3228024.7195   2  10   0.0005   0.0006   0.0003  -0.0002   0.0002   0.0002   0.00    1.0
2022/02/01 03:15:30.000   4514721.2121   3133507.8375   3228024.7196   2  10   0.0005   0.0006   0.0003  -0.0002   0.0002   0.0002   0.00    1.1
2022/02/01 03:16:00.000   4514721.2120   3133507.8376   3228024.7196   2  10   0.0005   0.0006   0.0003  -0.0002   0.0002   0.0002   0.00    1.1
2022/02/01 03:16:30.000   4514721.2119   3133507.8376   3228024.7196   2  10   0.0005   0.0006   0.0003  -0.0002   0.0002   0.0002   0.00    1.1
2022/02/01 03:17:00.000   4514721.2118   3133507.8377   3228024.7196   2  10   0.0005   0.0006   0.0003  -0.0002   0.0002   0.0002   0.00    1.1
2022/02/01 03:17:30.000   4514721.2118   3133507.8377   3228024.7196   2  10   0.0005   0.0006   0.0003  -0.0002   0.0002   0.0002   0.00    1.2
2022/02/01 03:18:00.000   4514721.2117   3133507.8377   3228024.7197   2  10   0.0005   0.0006   0.0003  -0.0002   0.0002   0.0002   0.00    1.2
2022/02/01 03:18:30.000   4514721.2116   3133507.8377   3228024.7197   2  10   0.0005   0.0006   0.0003  -0.0002   0.0002   0.0002   0.00    1.2
2022/02/01 03:19:00.000   4514721.2116   3133507.8377   3228024.7197   2  10   0.0005   0.0006   0.0003  -0.0002   0.0002   0.0002   0.00    1.2
2022/02/01 03:19:30.000   4514721.2115   3133507.8378   3228024.7198   2  10   0.0005   0.0006   0.0003  -0.0002   0.0002   0.0002   0.00    1.3
2022/02/01 03:20:00.000   4514721.2115   3133507.8378   3228024.7198   2  10   0.0005   0.0006   0.0003  -0.0002   0.0002   0.0002   0.00    1.3
2022/02/01 03:20:30.000   4514721.2114   3133507.8379   3228024.7198   2  10   0.0005   0.0006   0.0003  -0.0002   0.0002   0.0002   0.00    1.3
2022/02/01 03:21:00.000   4514721.2113   3133507.8380   3228024.7198   2   9   0.0005   0.0006   0.0003  -0.0002   0.0002   0.0002   0.00    1.4
2022/02/01 03:21:30.000   4514721.2112   3133507.8381   3228024.7198   2   9   0.0005   0.0006   0.0003  -0.0002   0.0002   0.0002   0.00    1.4
2022/02/01 03:22:00.000   4514721.2112   3133507.8381   3228024.7199   2   9   0.0005   0.0006   0.0003  -0.0002   0.0002   0.0002   0.00    1.4
2022/02/01 03:22:30.000   4514721.2111   3133507.8381   3228024.7199   2   9   0.0005   0.0006   0.0003  -0.0002   0.0002   0.0002   0.00    1.4
2022/02/01 03:23:00.000   4514721.2111   3133507.8382   3228024.7199   2   9   0.0005   0.0006   0.0003  -0.0002   0.0002   0.0002   0.00    1.4
2022/02/01 03:23:30.000   4514721.2110   3133507.8382   3228024.7199   2   9   0.0005   0.0006   0.0003  -0.0002   0.0002   0.0002   0.00    1.4
2022/02/01 03:24:00.000   4514721.2110   3133507.8381   3228024.7199   2   9   0.0005   0.0006   0.0003  -0.0002   0.0002   0.0002   0.00    1.5
2022/02/01 03:24:30.000   4514721.2110   3133507.8381   3228024.7199   2  10   0.0005   0.0006   0.0003  -0.0002   0.0002   0.0002   0.00    1.0
2022/02/01 03:25:00.000   4514721.2109   3133507.8381   3228024.7200   2  10   0.0005   0.0006   0.0003  -0.0002   0.0002   0.0002   0.00    1.0
2022/02/01 03:25:30.000   4514721.2109   3133507.8381   3228024.7200   2  11   0.0005   0.0006   0.0003  -0.0002   0.0002   0.0002   0.00    1.0
2022/02/01 03:26:00.000   4514721.2108   3133507.8381   3228024.7200   2  11   0.0005   0.0006   0.0003  -0.0002   0.0002   0.0002   0.00    1.0
2022/02/01 03:26:30.000   4514721.2108   3133507.8382   3228024.7199   2  11   0.0005   0.0006   0.0003  -0.0002   0.0002   0.0002   0.00    1.0
2022/02/01 03:27:00.000   4514721.2108   3133507.8382   3228024.7199   2  11   0.0005   0.0006   0.0003  -0.0002   0.0002   0.0002   0.00    1.0
2022/02/01 03:27:30.000   4514721.2108   3133507.8382   3228024.7199   2  10   0.0005   0.0006   0.0003  -0.0002   0.0002   0.0002   0.00    1.0
2022/02/01 03:28:00.000   4514721.2107   3133507.8382   3228024.7199   2  10   0.0005   0.0006   0.0003  -0.0002   0.0002   0.0002   0.00    1.0
2022/02/01 03:28:30.000   4514721.2107   3133507.8383   3228024.7199   2  10   0.0005   0.0006   0.0003  -0.0002   0.0002   0.0002   0.00    1.0
2022/02/01 03:29:00.000   4514721.2107   3133507.8383   3228024.7199   2  10   0.0005   0.0006   0.0003  -0.0002   0.0002   0.0002   0.00    1.0
2022/02/01 03:29:30.000   4514721.2107   3133507.8383   3228024.7199   2  10   0.0005   0.0006   0.0003  -0.0002   0.0002   0.0002   0.00    1.0
2022/02/01 03:30:00.000   4514721.2107   3133507.8383   3228024.7199   2  10   0.0005   0.0006   0.0003  -0.0002   0.0002   0.0002   0.00    1.0
2022/02/01 03:30:30.000   4514721.2107   3133507.8383   3228024.7199   2  10   0.0005   0.0006   0.0003  -0.0002   0.0002   0.0002   0.00    1.0
2022/02/01 03:31:00.000   4514721.2107   3133507.8383   3228024.7199   2  10   0.0005   0.0006   0.0003  -0.0002   0.0002   0.0002   0.00    1.0
2022/02/01 03:31:30.000   4514721.2107   3133507.8384   3228024.7199   2  10   0.0005   0.0006   0.0003  -0.0002   0.0002   0.0002   0.00    1.0
2022/02/01 03:32:00.000   4514721.2107   3133507.8384   3228024.7200   2  10   0.0005   0.0006   0.0003  -0.0002   0.0002   0.0002   0.00    1.0
2022/02/01 03:32:30.000   4514721.2108   3133507.8385   3228024.7200   2  10   0.0005   0.0006   0.0003  -0.0002   0.0002   0.0002   0.00    1.0
2022/02/01 03:33:00.000   4514721.2107   3133507.8385   3228024.7200   2  10   0.0005   0.0006   0.0003  -0.0002   0.0002   0.0002   0.00    1.0
2022/02/01 03:33:30.000   4514721.2107   3133507.8386   3228024.7200   2  10   0.0005   0.0006   0.0003  -0.0002   0.0002   0.0002   0.00    1.1
2022/02/01 03:34:00.000   4514721.2107   3133507.8386   3228024.7200   2  10   0.0005   0.0006   0.0003  -0.0002   0.0002   0.0002   0.00    1.1
2022/02/01 03:34:30.000   4514721.2107   3133507.8386   3228024.7200   2   9   0.0005   0.0006   0.0003  -0.0002   0.0002   0.0002   0.00    1.1
2022/02/01 03:35:00.000   4514721.2107   3133507.8387   3228024.7200   2   9   0.0005   0.0006   0.0003  -0.0002   0.0002   0.0002   0.00    1.1
2022/02/01 03:35:30.000   4514721.2107   3133507.8387   3228024.7201   2   9   0.0005   0.0006   0.0003  -0.0002   0.0002   0.0002   0.00    1.1
2022/02/01 03:36:00.000   4514721.2107   3133507.8388   3228024.7201   2   9   0.0005   0.0006   0.0003  -0.0002   0.0002   0.0002   0.00    1.1
2022/02/01 03:36:30.000   4514721.2107   3133507.8388   3228024.7201   2   9   0.0005   0.0006   0.0003  -0.0002   0.0002   0.0002   0.00    1.1
2022/02/01 03:37:00.000   4514721.2107   3133507.8389   3228024.7202   2   9   0.0005   0.0006   0.0003  -0.0002   0.0002   0.0002   0.00    1.1
2022/02/01 03:37:30.000   4514721.2106   3133507.8389   3228024.7202   2   9   0.0005   0.0006   0.0003  -0.0002   0.0002   0.0002   0.00    1.1
2022/02/01 03:38:00.000   4514721.2106   3133507.8390   3228024.7202   2   9   0.0005   0.0006   0.0003  -0.0002   0.0002   0.0002   0.00    1.1
2022/02/01 03:38:30.000   4514721.2105   3133507.8390   3228024.7202   2   9   0.0005   0.0006   0.0003  -0.0002   0.0002   0.0002   0.00    1.1
2022/02/01 03:39:00.000   4514721.2105   3133507.8390   3228024.7202   2   9   0.0005   0.0006   0.0003  -0.0002   0.0002   0.0002   0.00    1.1
2022/02/01 03:39:30.000   4514721.2105   3133507.8391   3228024.7203   2   9   0.0005   0.0006   0.0003  -0.0002   0.0002   0.0002   0.00    1.0
2022/02/01 03:40:00.000   4514721.2105   3133507.8391   3228024.7203   2   9   0.0005   0.0006   0.0003  -0.0002   0.0002   0.0002   0.00    1.0
2022/02/01 03:40:30.000   4514721.2104   3133507.8392   3228024.7203   2   9   0.0005   0.0006   0.0003  -0.0002   0.0002   0.0002   0.00    1.0
2022/02/01 03:41:00.000   4514721.2104   3133507.8392   3228024.7203   2   9   0.0005   0.0006   0.0003  -0.0002   0.0002   0.0002   0.00    1.0
2022/02/01 03:41:30.000   4514721.2104   3133507.8393   3228024.7203   2   9   0.0005   0.0006   0.0003  -0.0002   0.0002   0.0002   0.00    1.0
2022/02/01 03:42:00.000   4514721.2103   3133507.8394   3228024.7204   2   9   0.0005   0.0006   0.0003  -0.0002   0.0002   0.0002   0.00    1.0
2022/02/01 03:42:30.000   4514721.2103   3133507.8395   3228024.7204   2   9   0.0005   0.0006   0.0003  -0.0002   0.0002   0.0002   0.00    1.0
2022/02/01 03:43:00.000   4514721.2103   3133507.8395   3228024.7204   2   9   0.0005   0.0006   0.0003  -0.0002   0.0002   0.0002   0.00    1.1
2022/02/01 03:43:30.000   4514721.2103   3133507.8396   3228024.7204   2   9   0.0005   0.0006   0.0003  -0.0002   0.0002   0.0002   0.00    1.0
2022/02/01 03:44:00.000   4514721.2103   3133507.8396   3228024.7204   2   9   0.0005   0.0006   0.0003  -0.0002   0.0002   0.0002   0.00    1.1
2022/02/01 03:44:30.000   4514721.2102   3133507.8397   3228024.7204   2   9   0.0005   0.0006   0.0003  -0.0002   0.0002   0.0002   0.00    1.0
2022/02/01 03:45:00.000   4514721.2102   3133507.8397   3228024.7204   2   9   0.0005   0.0006   0.0003  -0.0002   0.0002   0.0002   0.00    1.0
2022/02/01 03:45:30.000   4514721.2102   3133507.8397   3228024.7204   2   9   0.0005   0.0006   0.0003  -0.0002   0.0002   0.0002   0.00    1.0
2022/02/01 03:46:00.000   4514721.2102   3133507.8397   3228024.7204   2   9   0.0005   0.0006   0.0003  -0.0002   0.0002   0.0002   0.00    1.0
2022/02/01 03:46:30.000   4514721.2102   3133507.8397   3228024.7204   2   9   0.0005   0.0006   0.0003  -0.0002   0.0002   0.0002   0.00    1.1
2022/02/01 03:47:00.000   4514721.2102   3133507.8397   3228024.7204   2   8   0.0005   0.0006   0.0003  -0.0002   0.0002   0.0002   0.00    1.2
2022/02/01 03:47:30.000   4514721.2102   3133507.8397   3228024.7204   2   8   0.0005   0.0006   0.0003  -0.0002   0.0002   0.0002   0.00    1.3
2022/02/01 03:48:00.000   4514721.2102   3133507.8397   3228024.7204   2   8   0.0005   0.0006   0.0003  -0.0002   0.0002   0.0002   0.00    1.3
2022/02/01 03:48:30.000   4514721.2102   3133507.8398   3228024.7204   2   8   0.0005   0.0006   0.0003  -0.0002   0.0002   0.0002   0.00    1.3
2022/02/01 03:49:00.000   4514721.2102   3133507.8398   3228024.7204   2   8   0.0005   0.0006   0.0003  -0.0002   0.0002   0.0002   0.00    1.3
2022/02/01 03:49:30.000   4514721.2101   3133507.8398   3228024.7204   2   8   0.0005   0.0006   0.0003  -0.0002   0.0002   0.0002   0.00    1.3
2022/02/01 03:50:00.000   4514721.2101   3133507.8398   3228024.7204   2   9   0.0005   0.0006   0.0003  -0.0002   0.0002   0.0002   0.00    1.0
2022/02/01 03:50:30.000   4514721.2101   3133507.8399   3228024.7204   2   9   0.0005   0.0006   0.0003  -0.0002   0.0002   0.0002   0.00    1.0
2022/02/01 03:51:00.000   4514721.2101   3133507.8399   3228024.7204   2   9   0.0005   0.0006   0.0003  -0.0002   0.0002   0.0002   0.00    1.0
2022/02/01 03:51:30.000   4514721.2100   3133507.8399   3228024.7204   2   9   0.0005   0.0006   0.0003  -0.0002   0.0002   0.0002   0.00    1.0
2022/02/01 03:52:00.000   4514721.2100   3133507.8400   3228024.7204   2   9   0.0005   0.0006   0.0003  -0.0002   0.0002   0.0002   0.00    1.1
2022/02/01 03:52:30.000   4514721.2100   3133507.8400   3228024.7204   2   9   0.0005   0.0006   0.0003  -0.0002   0.0002   0.0002   0.00    1.1
2022/02/01 03:53:00.000   4514721.2100   3133507.8400   3228024.7205   2   9   0.0005   0.0006   0.0003  -0.0002   0.0002   0.0002   0.00    1.1
2022/02/01 03:53:30.000   4514721.2099   3133507.8401   3228024.7205   2   9   0.0005   0.0006   0.0003  -0.0002   0.0002   0.0002   0.00    1.0
2022/02/01 03:54:00.000   4514721.2099   3133507.8401   3228024.7205   2   9   0.0005   0.0006   0.0003  -0.0002   0.0002   0.0002   0.00    1.0
2022/02/01 03:54:30.000   4514721.2099   3133507.8402   3228024.7205   2   9   0.0005   0.0006   0.0003  -0.0002   0.0002   0.0002   0.00    1.0
2022/02/01 03:55:00.000   4514721.2099   3133507.8403   3228024.7205   2   9   0.0005   0.0006   0.0003  -0.0002   0.0002   0.0002   0.00    1.0
2022/02/01 03:55:30.000   4514721.2099   3133507.8403   3228024.7205   2   9   0.0005   0.0006   0.0003  -0.0002   0.0002   0.0002   0.00    1.1
2022/02/01 03:56:00.000   4514721.2099   3133507.8404   3228024.7204   2   9   0.0005   0.0006   0.0003  -0.0002   0.0002   0.0002   0.00    1.1
2022/02/01 03:56:30.000   4514721.2099   3133507.8404   3228024.7204   2   9   0.0005   0.0006   0.0003  -0.0002   0.0002   0.0002   0.00    1.0
2022/02/01 03:57:00.000   4514721.2099   3133507.8404   3228024.7204   2   9   0.0005   0.0006   0.0003  -0.0002   0.0002   0.0002   0.00    1.1
2022/02/01 03:57:30.000   4514721.2099   3133507.8405   3228024.7204   2   9   0.0005   0.0006   0.0003  -0.0002   0.0002   0.0002   0.00    1.1
2022/02/01 03:58:00.000   4514721.2099   3133507.8405   3228024.7204   2   9   0.0005   0.0006   0.0003  -0.0002   0.0002   0.0002   0.00    1.2
2022/02/01 03:58:30.000   4514721.2100   3133507.8405   3228024.7204   2   9   0.0005   0.0006   0.0003  -0.0002   0.0002   0.0002   0.00    1.0
2022/02/01 03:59:00.000   4514721.2100   3133507.8405   3228024.7204   2   9   0.0005   0.0006   0.0003  -0.0002   0.0002   0.0002   0.00    1.1
2022/02/01 03:59:30.000   4514721.2100   3133507.8406   3228024.7204   2   9   0.0005   0.0006   0.0003  -0.0002   0.0002   0.0002   0.00    1.0
2022/02/01 04:00:00.000   4514721.2100   3133507.8406   3228024.7203   2   9   0.0005   0.0006   0.0003  -0.0002   0.0002   0.0002   0.00    1.1
2022/02/01 04:00:30.000   4514721.2100   3133507.8407   3228024.7203   2   9   0.0005   0.0006   0.0003  -0.0002   0.0002   0.0002   0.00    1.1
2022/02/01 04:01:00.000   4514721.2100   3133507.8408   3228024.7203   2   8   0.0005   0.0006   0.0003  -0.0002   0.0002   0.0002   0.00    1.2
2022/02/01 04:01:30.000   4514721.2100   3133507.8408   3228024.7203   2   8   0.0005   0.0006   0.0003  -0.0002   0.0002   0.0002   0.00    1.3
2022/02/01 04:02:00.000   4514721.2100   3133507.8409   3228024.7203   2   8   0.0005   0.0006   0.0003  -0.0002   0.0002   0.0002   0.00    1.3
2022/02/01 04:02:30.000   4514721.2100   3133507.8410   3228024.7203   2   8   0.0005   0.0006   0.0003  -0.0002   0.0002   0.0002   0.00    1.4
2022/02/01 04:03:00.000   4514721.2100   3133507.8410   3228024.7203   2   8   0.0005   0.0006   0.0003  -0.0002   0.0002   0.0002   0.00    1.4
2022/02/01 04:03:30.000   4514721.2100   3133507.8411   3228024.7203   2   8   0.0005   0.0006   0.0003  -0.0002   0.0002   0.0002   0.00    1.5
2022/02/01 04:04:00.000   4514721.2100   3133507.8412   3228024.7203   2   8   0.0005   0.0006   0.0003  -0.0002   0.0002   0.0002   0.00    1.6
2022/02/01 04:04:30.000   4514721.2100   3133507.8412   3228024.7203   2   8   0.0005   0.0006   0.0003  -0.0002   0.0002   0.0002   0.00    1.6
2022/02/01 04:05:00.000   4514721.2100   3133507.8413   3228024.7203   2   8   0.0005   0.0006   0.0003  -0.0002   0.0002   0.0002   0.00    1.6
2022/02/01 04:05:30.000   4514721.2100   3133507.8414   3228024.7203   2   8   0.0005   0.0006   0.0003  -0.0002   0.0002   0.0002   0.00    1.7
2022/02/01 04:06:00.000   4514721.2100   3133507.8414   3228024.7203   2   8   0.0005   0.0006   0.0003  -0.0002   0.0002   0.0002   0.00    1.7
2022/02/01 04:06:30.000   4514721.2100   3133507.8415   3228024.7203   2   8   0.0005   0.0006   0.0003  -0.0002   0.0002   0.0002   0.00    1.7
2022/02/01 04:07:00.000   4514721.2100   3133507.8416   3228024.7203   2   8   0.0005   0.0006   0.0003  -0.0002   0.0002   0.0002   0.00    1.8
2022/02/01 04:07:30.000   4514721.2100   3133507.8417   3228024.7203   2   8   0.0005   0.0006   0.0003  -0.0002   0.0002   0.0002   0.00    1.8
2022/02/01 04:08:00.000   4514721.2100   3133507.8417   3228024.7203   2   8   0.0005   0.0006   0.0003  -0.0002   0.0002   0.0002   0.00    1.8
2022/02/01 04:08:30.000   4514721.2100   3133507.8418   3228024.7203   2   8   0.0005   0.0006   0.0003  -0.0002   0.0002   0.0002   0.00    1.9
2022/02/01 04:09:00.000   4514721.2100   3133507.8419   3228024.7203   2   8   0.0005   0.0006   0.0003  -0.0002   0.0002   0.0002   0.00    1.9
2022/02/01 04:09:30.000   4514721.2101   3133507.8419   3228024.7203   2   8   0.0005   0.0006   0.0003  -0.0002   0.0002   0.0002   0.00    1.9
2022/02/01 04:10:00.000   4514721.2101   3133507.8420   3228024.7203   2   8   0.0005   0.0006   0.0003  -0.0002   0.0002   0.0002   0.00    2.0
2022/02/01 04:10:30.000   4514721.2101   3133507.8421   3228024.7204   2   8   0.0005   0.0006   0.0003  -0.0002   0.0002   0.0002   0.00    2.0
2022/02/01 04:11:00.000   4514721.2102   3133507.8421   3228024.7204   2   8   0.0005   0.0006   0.0003  -0.0002   0.0002   0.0002   0.00    2.1
2022/02/01 04:11:30.000   4514721.2102   3133507.8422   3228024.7204   2   8   0.0005   0.0006   0.0003  -0.0002   0.0002   0.0002   0.00    2.1
2022/02/01 04:12:00.000   4514721.2103   3133507.8423   3228024.7204   2   8   0.0005   0.0006   0.0003  -0.0002   0.0002   0.0002   0.00    2.1
2022/02/01 04:12:30.000   4514721.2103   3133507.8423   3228024.7204   2   8   0.0005   0.0006   0.0003  -0.0002   0.0002   0.0002   0.00    2.2
2022/02/01 04:13:00.000   4514721.2104   3133507.8424   3228024.7204   2   8   0.0005   0.0006   0.0003  -0.0002   0.0002   0.0002   0.00    2.2
2022/02/01 04:13:30.000   4514721.2104   3133507.8424   3228024.7204   2   8   0.0005   0.0006   0.0003  -0.0002   0.0002   0.0002   0.00    2.2
2022/02/01 04:14:00.000   4514721.2104   3133507.8425   3228024.7204   2   8   0.0005   0.0006   0.0003  -0.0002   0.0002   0.0002   0.00    2.3
2022/02/01 04:14:30.000   4514721.2105   3133507.8425   3228024.7204   2   8   0.0005   0.0006   0.0003  -0.0002   0.0002   0.0002   0.00    2.3
2022/02/01 04:15:00.000   4514721.2105   3133507.8426   3228024.7204   2   8   0.0005   0.0006   0.0003  -0.0002   0.0002   0.0002   0.00    2.4
2022/02/01 04:15:30.000   4514721.2105   3133507.8427   3228024.7204   2   8   0.0005   0.0006   0.0003  -0.0002   0.0002   0.0002   0.00    2.4
2022/02/01 04:16:00.000   4514721.2106   3133507.8427   3228024.7204   2   8   0.0005   0.0006   0.0003  -0.0002   0.0002   0.0002   0.00    2.5
2022/02/01 04:16:30.000   4514721.2106   3133507.8427   3228024.7204   2   8   0.0005   0.0006   0.0003  -0.0002   0.0002   0.0002   0.00    2.5
2022/02/01 04:17:00.000   4514721.2107   3133507.8427   3228024.7205   2   8   0.0005   0.0006   0.0003  -0.0002   0.0002   0.0002   0.00    2.6
2022/02/01 04:17:30.000   4514721.2108   3133507.8427   3228024.7205   2   8   0.0005   0.0006   0.0003  -0.0002   0.0002   0.0002   0.00    2.6
2022/02/01 04:18:00.000   4514721.2109   3133507.8427   3228024.7205   2   8   0.0005   0.0006   0.0003  -0.0002   0.0002   0.0002   0.00    2.6
2022/02/01 04:18:30.000   4514721.2110   3133507.8427   3228024.7205   2   8   0.0005   0.0006   0.0003  -0.0002   0.0002   0.0002   0.00    2.7
2022/02/01 04:19:00.000   4514721.2111   3133507.8426   3228024.7205   2   8   0.0005   0.0006   0.0003  -0.0002   0.0002   0.0002   0.00    2.7
2022/02/01 04:19:30.000   4514721.2112   3133507.8426   3228024.7205   2   8   0.0005   0.0006   0.0003  -0.0002   0.0002   0.0002   0.00    2.7
2022/02/01 04:20:00.000   4514721.2113   3133507.8426   3228024.7205   2   8   0.0005   0.0006   0.0003  -0.0002   0.0002   0.0002   0.00    2.8
2022/02/01 04:20:30.000   4514721.2114   3133507.8426   3228024.7205   2   8   0.0005   0.0006   0.0003  -0.0002   0.0002   0.0002   0.00    2.8
2022/02/01 04:21:00.000   4514721.2115   3133507.8425   3228024.7205   2   8   0.0005   0.0006   0.0003  -0.0002   0.0002   0.0002   0.00    2.8
2022/02/01 04:21:30.000   4514721.2116   3133507.8425   3228024.7205   2   8   0.0005   0.0006   0.0003  -0.0002   0.0002   0.0002   0.00    2.9
