% program   : RTKPOST ver.2.4.3 b34
% inp file  : C:\Users\gorta.DUDOSG\Desktop\Учёба\#старое\GNSS\2 семестр\Задание 14\Новая папка\bshm0320.22o
% inp file  : C:\Users\gorta.DUDOSG\Desktop\Учёба\#старое\GNSS\2 семестр\Задание 14\Новая папка\drag0320.22o
% inp file  : C:\Users\gorta.DUDOSG\Desktop\Учёба\#старое\GNSS\2 семестр\Задание 14\Новая папка\brdc0320.22n
% obs start : 2022/02/01 00:00:00.0 GPST (week2195 172800.0s)
% obs end   : 2022/02/01 23:59:30.0 GPST (week2195 259170.0s)
% pos mode  : Static
% freqs     : L1+2+3+4+5
% solution  : Combined
% elev mask : 10.0 deg
% dynamics  : off
% tidecorr  : off
% ionos opt : Broadcast
% tropo opt : OFF
% ephemeris : Broadcast
% navi sys  : GPS GLONASS Galileo QZSS BDS NavIC SBAS
% amb res   : Continuous
% amb glo   : ON
% val thres : 3.0
% antenna1  :                       ( 0.0000  0.0000  0.0030)
% antenna2  :                       ( 0.0000  0.0000  0.0000)
% ref pos   :  4432980.3096   3149432.3273   3322110.7809
%
% (x/y/z-ecef=WGS84,Q=1:fix,2:float,3:sbas,4:dgps,5:single,6:ppp,ns=# of satellites)
%  GPST                      x-ecef(m)      y-ecef(m)      z-ecef(m)   Q  ns   sdx(m)   sdy(m)   sdz(m)  sdxy(m)  sdyz(m)  sdzx(m) age(s)  ratio
2022/02/01 00:59:30.000   4395951.1870   3080707.3092   3433498.3389   1   9   0.0529   0.0409   0.0259   0.0409   0.0225   0.0300 -30.00    3.8
2022/02/01 01:00:00.000   4395951.1550   3080707.2859   3433498.3317   1   9   0.0086   0.0070   0.0053   0.0066   0.0038   0.0050   0.00    3.1
2022/02/01 01:00:30.000   4395951.1994   3080707.4172   3433498.4153   2   9   0.0005   0.0005   0.0003  -0.0002   0.0002   0.0002   0.00    2.9
2022/02/01 01:01:00.000   4395951.1995   3080707.4173   3433498.4153   2   9   0.0005   0.0005   0.0003  -0.0002   0.0002   0.0002   0.00    2.5
2022/02/01 01:01:30.000   4395951.1506   3080707.2881   3433498.3278   1   8   0.0044   0.0035   0.0029   0.0033   0.0020   0.0026   0.00    4.5
2022/02/01 01:02:00.000   4395951.1495   3080707.2874   3433498.3271   1   8   0.0039   0.0032   0.0026   0.0030   0.0018   0.0024   0.00    4.9
2022/02/01 01:02:30.000   4395951.1486   3080707.2878   3433498.3267   1   8   0.0035   0.0029   0.0024   0.0027   0.0016   0.0021   0.00    5.3
2022/02/01 01:03:00.000   4395951.1474   3080707.2875   3433498.3259   1   8   0.0033   0.0027   0.0022   0.0025   0.0015   0.0020   0.00    5.6
2022/02/01 01:03:30.000   4395951.1454   3080707.2866   3433498.3247   1   8   0.0031   0.0025   0.0020   0.0023   0.0014   0.0019   0.00    5.6
2022/02/01 01:04:00.000   4395951.1432   3080707.2854   3433498.3237   1   8   0.0029   0.0024   0.0019   0.0022   0.0013   0.0017   0.00    5.4
2022/02/01 01:04:30.000   4395951.1409   3080707.2842   3433498.3227   1   8   0.0027   0.0022   0.0018   0.0021   0.0012   0.0017   0.00    5.4
2022/02/01 01:05:00.000   4395951.1389   3080707.2828   3433498.3213   1   8   0.0026   0.0021   0.0018   0.0020   0.0012   0.0016   0.00    5.6
2022/02/01 01:05:30.000   4395951.1369   3080707.2815   3433498.3202   1   8   0.0025   0.0020   0.0017   0.0019   0.0011   0.0015   0.00    5.7
2022/02/01 01:06:00.000   4395951.1356   3080707.2803   3433498.3198   1   8   0.0024   0.0020   0.0016   0.0018   0.0011   0.0015   0.00    6.4
2022/02/01 01:06:30.000   4395951.1349   3080707.2792   3433498.3196   1   8   0.0023   0.0019   0.0016   0.0018   0.0010   0.0014   0.00    7.0
2022/02/01 01:07:00.000   4395951.1351   3080707.2787   3433498.3196   1   8   0.0022   0.0018   0.0015   0.0017   0.0010   0.0014   0.00    7.9
2022/02/01 01:07:30.000   4395951.1349   3080707.2780   3433498.3195   1   8   0.0021   0.0018   0.0015   0.0016   0.0010   0.0013   0.00    8.8
2022/02/01 01:08:00.000   4395951.1343   3080707.2769   3433498.3192   1   8   0.0021   0.0017   0.0014   0.0016   0.0009   0.0013   0.00    8.8
2022/02/01 01:08:30.000   4395951.1333   3080707.2755   3433498.3188   1   8   0.0020   0.0017   0.0014   0.0015   0.0009   0.0012   0.00    8.4
2022/02/01 01:09:00.000   4395951.1320   3080707.2745   3433498.3184   1   8   0.0020   0.0016   0.0013   0.0015   0.0009   0.0012   0.00    7.8
2022/02/01 01:09:30.000   4395951.1300   3080707.2731   3433498.3180   1   8   0.0019   0.0016   0.0013   0.0015   0.0009   0.0012   0.00    7.1
2022/02/01 01:10:00.000   4395951.1285   3080707.2720   3433498.3176   1   8   0.0019   0.0015   0.0013   0.0014   0.0009   0.0011   0.00    6.6
2022/02/01 01:10:30.000   4395951.1271   3080707.2710   3433498.3176   1   8   0.0018   0.0015   0.0013   0.0014   0.0008   0.0011   0.00    6.2
2022/02/01 01:11:00.000   4395951.1253   3080707.2699   3433498.3174   1   8   0.0018   0.0015   0.0012   0.0014   0.0008   0.0011   0.00    5.8
2022/02/01 01:11:30.000   4395951.1239   3080707.2690   3433498.3173   1   8   0.0017   0.0015   0.0012   0.0013   0.0008   0.0011   0.00    5.4
2022/02/01 01:12:00.000   4395951.1230   3080707.2687   3433498.3173   1   8   0.0017   0.0014   0.0012   0.0013   0.0008   0.0011   0.00    5.2
2022/02/01 01:12:30.000   4395951.1222   3080707.2686   3433498.3172   1   8   0.0017   0.0014   0.0012   0.0013   0.0008   0.0010   0.00    5.0
2022/02/01 01:13:00.000   4395951.1214   3080707.2684   3433498.3169   1   8   0.0016   0.0014   0.0011   0.0013   0.0008   0.0010   0.00    4.9
2022/02/01 01:13:30.000   4395951.1207   3080707.2685   3433498.3166   1   8   0.0016   0.0013   0.0011   0.0012   0.0007   0.0010   0.00    4.9
2022/02/01 01:14:00.000   4395951.1194   3080707.2680   3433498.3160   1   8   0.0016   0.0013   0.0011   0.0012   0.0007   0.0010   0.00    4.8
2022/02/01 01:14:30.000   4395951.1184   3080707.2677   3433498.3156   1   8   0.0016   0.0013   0.0011   0.0012   0.0007   0.0010   0.00    4.8
2022/02/01 01:15:00.000   4395951.1173   3080707.2674   3433498.3152   1   8   0.0015   0.0013   0.0011   0.0012   0.0007   0.0009   0.00    4.7
2022/02/01 01:15:30.000   4395951.1163   3080707.2672   3433498.3150   1   8   0.0015   0.0013   0.0011   0.0012   0.0007   0.0009   0.00    4.7
2022/02/01 01:16:00.000   4395951.1155   3080707.2669   3433498.3145   1   8   0.0015   0.0013   0.0011   0.0011   0.0007   0.0009   0.00    4.6
2022/02/01 01:16:30.000   4395951.1145   3080707.2667   3433498.3140   1   8   0.0015   0.0012   0.0010   0.0011   0.0007   0.0009   0.00    4.6
2022/02/01 01:17:00.000   4395951.1133   3080707.2662   3433498.3134   1   8   0.0014   0.0012   0.0010   0.0011   0.0007   0.0009   0.00    4.5
2022/02/01 01:17:30.000   4395951.1119   3080707.2656   3433498.3125   1   8   0.0014   0.0012   0.0010   0.0011   0.0007   0.0009   0.00    4.5
2022/02/01 01:18:00.000   4395951.2009   3080707.4214   3433498.4171   2   9   0.0005   0.0005   0.0003  -0.0002   0.0002   0.0002   0.00    1.0
2022/02/01 01:18:30.000   4395951.2008   3080707.4215   3433498.4172   2   9   0.0005   0.0005   0.0003  -0.0002   0.0002   0.0002   0.00    1.1
2022/02/01 01:19:00.000   4395951.2008   3080707.4217   3433498.4173   2   9   0.0005   0.0005   0.0003  -0.0002   0.0002   0.0002   0.00    1.1
2022/02/01 01:19:30.000   4395951.2008   3080707.4218   3433498.4174   2   9   0.0005   0.0005   0.0003  -0.0002   0.0002   0.0002   0.00    1.1
2022/02/01 01:20:00.000   4395951.2008   3080707.4219   3433498.4174   2   9   0.0005   0.0005   0.0003  -0.0002   0.0002   0.0002   0.00    1.2
2022/02/01 01:20:30.000   4395951.2008   3080707.4221   3433498.4175   2   9   0.0005   0.0005   0.0003  -0.0002   0.0002   0.0002   0.00    1.2
2022/02/01 01:21:00.000   4395951.2008   3080707.4223   3433498.4176   2   9   0.0005   0.0005   0.0003  -0.0002   0.0002   0.0002   0.00    1.2
2022/02/01 01:21:30.000   4395951.2007   3080707.4224   3433498.4177   2   9   0.0005   0.0005   0.0003  -0.0002   0.0002   0.0002   0.00    1.2
2022/02/01 01:22:00.000   4395951.2007   3080707.4226   3433498.4178   2   9   0.0005   0.0005   0.0003  -0.0002   0.0002   0.0002   0.00    1.2
2022/02/01 01:22:30.000   4395951.2007   3080707.4227   3433498.4179   2   9   0.0005   0.0005   0.0003  -0.0002   0.0002   0.0002   0.00    1.2
2022/02/01 01:23:00.000   4395951.2007   3080707.4229   3433498.4180   2   9   0.0005   0.0005   0.0003  -0.0002   0.0002   0.0002   0.00    1.2
2022/02/01 01:23:30.000   4395951.2006   3080707.4230   3433498.4181   2   9   0.0005   0.0005   0.0003  -0.0002   0.0002   0.0002   0.00    1.2
2022/02/01 01:24:00.000   4395951.2006   3080707.4232   3433498.4182   2   9   0.0005   0.0005   0.0003  -0.0002   0.0002   0.0002   0.00    1.2
2022/02/01 01:24:30.000   4395951.2006   3080707.4233   3433498.4182   2   9   0.0005   0.0005   0.0003  -0.0002   0.0002   0.0002   0.00    1.2
2022/02/01 01:25:00.000   4395951.2006   3080707.4234   3433498.4183   2   9   0.0005   0.0005   0.0003  -0.0002   0.0002   0.0002   0.00    1.2
2022/02/01 01:25:30.000   4395951.2006   3080707.4236   3433498.4184   2   9   0.0005   0.0005   0.0003  -0.0002   0.0002   0.0002   0.00    1.3
2022/02/01 01:26:00.000   4395951.2005   3080707.4237   3433498.4185   2   9   0.0005   0.0005   0.0003  -0.0002   0.0002   0.0002   0.00    1.3
2022/02/01 01:26:30.000   4395951.2005   3080707.4238   3433498.4185   2   9   0.0005   0.0005   0.0003  -0.0002   0.0002   0.0002   0.00    1.3
2022/02/01 01:27:00.000   4395951.2005   3080707.4240   3433498.4186   2   9   0.0005   0.0005   0.0003  -0.0002   0.0002   0.0002   0.00    1.3
2022/02/01 01:27:30.000   4395951.2004   3080707.4241   3433498.4187   2   9   0.0005   0.0005   0.0003  -0.0002   0.0002   0.0002   0.00    1.3
2022/02/01 01:28:00.000   4395951.2004   3080707.4242   3433498.4187   2   9   0.0005   0.0005   0.0003  -0.0002   0.0002   0.0002   0.00    1.3
2022/02/01 01:28:30.000   4395951.2004   3080707.4244   3433498.4188   2   9   0.0005   0.0005   0.0003  -0.0002   0.0002   0.0002   0.00    1.4
2022/02/01 01:29:00.000   4395951.2004   3080707.4245   3433498.4189   2   9   0.0005   0.0005   0.0003  -0.0002   0.0002   0.0002   0.00    1.4
2022/02/01 01:29:30.000   4395951.2003   3080707.4246   3433498.4189   2   9   0.0005   0.0005   0.0003  -0.0002   0.0002   0.0002   0.00    1.4
2022/02/01 01:30:00.000   4395951.2003   3080707.4247   3433498.4190   2   9   0.0005   0.0005   0.0003  -0.0002   0.0002   0.0002   0.00    1.4
2022/02/01 01:30:30.000   4395951.2002   3080707.4248   3433498.4190   2   9   0.0005   0.0005   0.0003  -0.0002   0.0002   0.0002   0.00    1.4
2022/02/01 01:31:00.000   4395951.2001   3080707.4249   3433498.4191   2   9   0.0005   0.0005   0.0003  -0.0002   0.0002   0.0002   0.00    1.5
2022/02/01 01:31:30.000   4395951.2001   3080707.4251   3433498.4191   2   9   0.0005   0.0005   0.0003  -0.0002   0.0002   0.0002   0.00    1.5
2022/02/01 01:32:00.000   4395951.2000   3080707.4252   3433498.4192   2   9   0.0005   0.0005   0.0003  -0.0002   0.0002   0.0002   0.00    1.5
2022/02/01 01:32:30.000   4395951.2000   3080707.4254   3433498.4192   2   9   0.0005   0.0005   0.0003  -0.0002   0.0002   0.0002   0.00    1.6
2022/02/01 01:33:00.000   4395951.1999   3080707.4255   3433498.4193   2   9   0.0005   0.0005   0.0003  -0.0002   0.0002   0.0002   0.00    1.6
2022/02/01 01:33:30.000   4395951.1998   3080707.4257   3433498.4193   2   9   0.0005   0.0005   0.0003  -0.0002   0.0002   0.0002   0.00    1.6
2022/02/01 01:34:00.000   4395951.1997   3080707.4259   3433498.4194   2   9   0.0005   0.0005   0.0003  -0.0002   0.0002   0.0002   0.00    1.7
2022/02/01 01:34:30.000   4395951.1997   3080707.4260   3433498.4194   2   9   0.0005   0.0005   0.0003  -0.0002   0.0002   0.0002   0.00    1.7
2022/02/01 01:35:00.000   4395951.1996   3080707.4262   3433498.4195   2   9   0.0005   0.0005   0.0003  -0.0002   0.0002   0.0002   0.00    1.7
2022/02/01 01:35:30.000   4395951.1995   3080707.4264   3433498.4195   2   9   0.0005   0.0005   0.0003  -0.0002   0.0002   0.0002   0.00    1.8
2022/02/01 01:36:00.000   4395951.1994   3080707.4265   3433498.4195   2   9   0.0005   0.0005   0.0003  -0.0002   0.0002   0.0002   0.00    1.8
2022/02/01 01:36:30.000   4395951.1993   3080707.4267   3433498.4196   2   9   0.0005   0.0005   0.0003  -0.0002   0.0002   0.0002   0.00    1.8
2022/02/01 01:37:00.000   4395951.1992   3080707.4269   3433498.4196   2   9   0.0005   0.0005   0.0003  -0.0002   0.0002   0.0002   0.00    1.9
2022/02/01 01:37:30.000   4395951.1991   3080707.4270   3433498.4196   2   9   0.0005   0.0005   0.0003  -0.0002   0.0002   0.0002   0.00    1.9
2022/02/01 01:38:00.000   4395951.1990   3080707.4272   3433498.4196   2   9   0.0005   0.0005   0.0003  -0.0002   0.0002   0.0002   0.00    1.9
2022/02/01 01:38:30.000   4395951.1989   3080707.4274   3433498.4197   2   9   0.0005   0.0005   0.0003  -0.0002   0.0002   0.0002   0.00    2.0
2022/02/01 01:39:00.000   4395951.1988   3080707.4275   3433498.4197   2   9   0.0005   0.0006   0.0003  -0.0002   0.0002   0.0002   0.00    2.0
2022/02/01 01:39:30.000   4395951.1987   3080707.4276   3433498.4197   2   9   0.0005   0.0006   0.0003  -0.0002   0.0002   0.0002   0.00    2.0
2022/02/01 01:40:00.000   4395951.1986   3080707.4278   3433498.4197   2   9   0.0005   0.0006   0.0003  -0.0002   0.0002   0.0002   0.00    2.1
2022/02/01 01:40:30.000   4395951.1985   3080707.4279   3433498.4197   2   9   0.0005   0.0006   0.0003  -0.0002   0.0002   0.0002   0.00    2.1
2022/02/01 01:41:00.000   4395951.1985   3080707.4280   3433498.4197   2   9   0.0005   0.0006   0.0003  -0.0002   0.0002   0.0002   0.00    2.2
2022/02/01 01:41:30.000   4395951.1984   3080707.4281   3433498.4197   2   9   0.0005   0.0006   0.0003  -0.0002   0.0002   0.0002   0.00    2.2
2022/02/01 01:42:00.000   4395951.1984   3080707.4282   3433498.4197   2   9   0.0005   0.0006   0.0003  -0.0002   0.0002   0.0002   0.00    2.3
2022/02/01 01:42:30.000   4395951.1983   3080707.4283   3433498.4198   2   9   0.0005   0.0006   0.0003  -0.0002   0.0002   0.0002   0.00    2.3
2022/02/01 01:43:00.000   4395951.1983   3080707.4285   3433498.4198   2   9   0.0005   0.0006   0.0003  -0.0002   0.0002   0.0002   0.00    2.3
2022/02/01 01:43:30.000   4395951.1982   3080707.4286   3433498.4198   2   9   0.0005   0.0006   0.0003  -0.0002   0.0002   0.0002   0.00    2.4
2022/02/01 01:44:00.000   4395951.1982   3080707.4287   3433498.4198   2   9   0.0005   0.0006   0.0003  -0.0002   0.0002   0.0002   0.00    2.4
2022/02/01 01:44:30.000   4395951.1981   3080707.4289   3433498.4198   2   9   0.0005   0.0006   0.0003  -0.0002   0.0002   0.0002   0.00    2.4
2022/02/01 01:45:00.000   4395951.1981   3080707.4290   3433498.4198   2   9   0.0005   0.0006   0.0003  -0.0002   0.0002   0.0002   0.00    2.5
2022/02/01 01:45:30.000   4395951.1980   3080707.4292   3433498.4198   2   9   0.0005   0.0006   0.0003  -0.0002   0.0002   0.0002   0.00    2.4
2022/02/01 01:46:00.000   4395951.1979   3080707.4293   3433498.4198   2   9   0.0005   0.0006   0.0003  -0.0002   0.0002   0.0002   0.00    2.4
2022/02/01 01:46:30.000   4395951.1978   3080707.4295   3433498.4198   2   9   0.0005   0.0006   0.0003  -0.0002   0.0002   0.0002   0.00    2.4
2022/02/01 01:47:00.000   4395951.1977   3080707.4296   3433498.4198   2   9   0.0005   0.0006   0.0003  -0.0002   0.0002   0.0002   0.00    2.4
2022/02/01 01:47:30.000   4395951.1976   3080707.4298   3433498.4198   2   9   0.0005   0.0006   0.0003  -0.0002   0.0002   0.0002   0.00    2.4
2022/02/01 01:48:00.000   4395951.1975   3080707.4300   3433498.4198   2   9   0.0005   0.0006   0.0003  -0.0002   0.0002   0.0002   0.00    2.3
2022/02/01 01:48:30.000   4395951.1974   3080707.4301   3433498.4198   2   9   0.0005   0.0006   0.0003  -0.0002   0.0002   0.0002   0.00    2.3
2022/02/01 01:49:00.000   4395951.1973   3080707.4303   3433498.4198   2   9   0.0005   0.0006   0.0003  -0.0002   0.0002   0.0002   0.00    2.3
2022/02/01 01:49:30.000   4395951.1971   3080707.4304   3433498.4198   2   9   0.0005   0.0006   0.0003  -0.0002   0.0002   0.0002   0.00    2.3
2022/02/01 01:50:00.000   4395951.1970   3080707.4306   3433498.4198   2   9   0.0005   0.0006   0.0003  -0.0002   0.0002   0.0002   0.00    2.3
2022/02/01 01:50:30.000   4395951.1968   3080707.4307   3433498.4198   2   9   0.0005   0.0006   0.0003  -0.0002   0.0002   0.0002   0.00    2.3
2022/02/01 01:51:00.000   4395951.1967   3080707.4309   3433498.4198   2   8   0.0005   0.0006   0.0003  -0.0002   0.0002   0.0002   0.00    2.4
2022/02/01 01:51:30.000   4395951.1965   3080707.4310   3433498.4198   2   8   0.0005   0.0006   0.0003  -0.0002   0.0002   0.0002   0.00    2.4
2022/02/01 01:52:00.000   4395951.1964   3080707.4311   3433498.4198   2   8   0.0005   0.0006   0.0003  -0.0002   0.0002   0.0002   0.00    2.4
2022/02/01 01:52:30.000   4395951.1963   3080707.4311   3433498.4197   2   8   0.0005   0.0006   0.0003  -0.0002   0.0002   0.0002   0.00    2.3
2022/02/01 01:53:00.000   4395951.1961   3080707.4311   3433498.4197   2   8   0.0005   0.0006   0.0003  -0.0002   0.0002   0.0002   0.00    2.3
2022/02/01 01:53:30.000   4395951.1960   3080707.4311   3433498.4197   2   8   0.0005   0.0006   0.0003  -0.0002   0.0002   0.0002   0.00    2.2
2022/02/01 01:54:00.000   4395951.1959   3080707.4310   3433498.4196   2   8   0.0005   0.0006   0.0003  -0.0002   0.0002   0.0002   0.00    2.2
2022/02/01 01:54:30.000   4395951.1958   3080707.4309   3433498.4196   2   8   0.0005   0.0006   0.0003  -0.0002   0.0002   0.0002   0.00    2.1
2022/02/01 01:55:00.000   4395951.1958   3080707.4308   3433498.4195   2   8   0.0005   0.0006   0.0003  -0.0002   0.0002   0.0002   0.00    2.1
2022/02/01 01:55:30.000   4395951.1957   3080707.4306   3433498.4194   2   8   0.0005   0.0006   0.0003  -0.0002   0.0002   0.0002   0.00    2.0
2022/02/01 01:56:00.000   4395951.1956   3080707.4304   3433498.4194   2   8   0.0005   0.0006   0.0003  -0.0002   0.0002   0.0002   0.00    2.0
2022/02/01 01:56:30.000   4395951.1955   3080707.4302   3433498.4193   2   8   0.0005   0.0006   0.0003  -0.0002   0.0002   0.0002   0.00    1.9
2022/02/01 01:57:00.000   4395951.1955   3080707.4299   3433498.4192   2   8   0.0005   0.0006   0.0003  -0.0002   0.0002   0.0002   0.00    1.9
2022/02/01 01:57:30.000   4395951.1954   3080707.4296   3433498.4192   2   8   0.0005   0.0006   0.0003  -0.0002   0.0002   0.0002   0.00    1.8
2022/02/01 01:58:00.000   4395951.1954   3080707.4294   3433498.4191   2   8   0.0005   0.0006   0.0003  -0.0002   0.0002   0.0002   0.00    1.8
2022/02/01 01:58:30.000   4395951.1953   3080707.4290   3433498.4190   2   8   0.0005   0.0006   0.0003  -0.0002   0.0002   0.0002   0.00    1.7
2022/02/01 01:59:00.000   4395951.1953   3080707.4287   3433498.4189   2   8   0.0005   0.0006   0.0003  -0.0002   0.0002   0.0002   0.00    1.7
2022/02/01 01:59:30.000   4395951.1953   3080707.4283   3433498.4189   2   7   0.0005   0.0006   0.0003  -0.0002   0.0002   0.0002   0.00    1.9
2022/02/01 02:00:00.000   4395951.1952   3080707.4280   3433498.4188   2   7   0.0005   0.0006   0.0003  -0.0002   0.0002   0.0002   0.00    1.8
2022/02/01 02:00:30.000   4395951.1952   3080707.4276   3433498.4187   2   7   0.0005   0.0006   0.0003  -0.0002   0.0002   0.0002   0.00    1.7
2022/02/01 02:01:00.000   4395951.1952   3080707.4272   3433498.4186   2   7   0.0005   0.0006   0.0003  -0.0002   0.0002   0.0002   0.00    1.7
2022/02/01 02:01:30.000   4395951.1952   3080707.4268   3433498.4185   2   7   0.0005   0.0006   0.0003  -0.0002   0.0002   0.0002   0.00    1.6
2022/02/01 02:02:00.000   4395951.1952   3080707.4264   3433498.4185   2   7   0.0005   0.0006   0.0003  -0.0002   0.0002   0.0002   0.00    1.5
2022/02/01 02:02:30.000   4395951.1951   3080707.4260   3433498.4184   2   7   0.0005   0.0006   0.0003  -0.0002   0.0002   0.0002   0.00    1.4
2022/02/01 02:03:00.000   4395951.1951   3080707.4257   3433498.4183   2   8   0.0005   0.0006   0.0003  -0.0002   0.0002   0.0002   0.00    1.0
2022/02/01 02:03:30.000   4395951.1951   3080707.4253   3433498.4183   2   8   0.0005   0.0006   0.0003  -0.0002   0.0002   0.0002   0.00    1.0
2022/02/01 02:04:00.000   4395951.1951   3080707.4249   3433498.4182   2   8   0.0005   0.0006   0.0003  -0.0002   0.0002   0.0002   0.00    1.0
2022/02/01 02:04:30.000   4395951.1950   3080707.4246   3433498.4181   2   8   0.0005   0.0006   0.0003  -0.0002   0.0002   0.0002   0.00    1.0
2022/02/01 02:05:00.000   4395951.1950   3080707.4242   3433498.4181   2   8   0.0005   0.0006   0.0003  -0.0002   0.0002   0.0002   0.00    1.0
2022/02/01 02:05:30.000   4395951.1950   3080707.4238   3433498.4180   2   8   0.0005   0.0006   0.0003  -0.0002   0.0002   0.0002   0.00    1.0
2022/02/01 02:06:00.000   4395951.1950   3080707.4235   3433498.4180   2   8   0.0005   0.0006   0.0003  -0.0002   0.0002   0.0002   0.00    1.0
2022/02/01 02:06:30.000   4395951.1950   3080707.4231   3433498.4179   2   8   0.0005   0.0006   0.0003  -0.0002   0.0002   0.0002   0.00    1.0
2022/02/01 02:07:00.000   4395951.1950   3080707.4227   3433498.4179   2   8   0.0005   0.0006   0.0003  -0.0002   0.0002   0.0002   0.00    1.0
2022/02/01 02:07:30.000   4395951.1950   3080707.4224   3433498.4178   2   8   0.0005   0.0006   0.0003  -0.0002   0.0002   0.0002   0.00    1.0
2022/02/01 02:08:00.000   4395951.1951   3080707.4220   3433498.4178   2   8   0.0005   0.0006   0.0003  -0.0002   0.0002   0.0002   0.00    1.0
2022/02/01 02:08:30.000   4395951.1951   3080707.4217   3433498.4178   2   8   0.0005   0.0006   0.0003  -0.0002   0.0002   0.0002   0.00    1.0
2022/02/01 02:09:00.000   4395951.1951   3080707.4214   3433498.4178   2   8   0.0005   0.0006   0.0003  -0.0002   0.0002   0.0002   0.00    1.0
2022/02/01 02:09:30.000   4395951.1951   3080707.4212   3433498.4179   2   8   0.0005   0.0006   0.0003  -0.0002   0.0002   0.0002   0.00    1.0
2022/02/01 02:10:00.000   4395951.1952   3080707.4210   3433498.4179   2   8   0.0005   0.0006   0.0003  -0.0002   0.0002   0.0002   0.00    1.0
2022/02/01 02:10:30.000   4395951.1952   3080707.4207   3433498.4179   2   8   0.0005   0.0006   0.0003  -0.0002   0.0002   0.0002   0.00    1.0
2022/02/01 02:11:00.000   4395951.1952   3080707.4206   3433498.4180   2   8   0.0005   0.0006   0.0003  -0.0002   0.0002   0.0002   0.00    1.0
2022/02/01 02:11:30.000   4395951.1952   3080707.4204   3433498.4180   2   8   0.0005   0.0006   0.0003  -0.0002   0.0002   0.0002   0.00    1.0
2022/02/01 02:12:00.000   4395951.1952   3080707.4203   3433498.4181   2   8   0.0005   0.0006   0.0003  -0.0002   0.0002   0.0002   0.00    1.1
2022/02/01 02:12:30.000   4395951.1953   3080707.4202   3433498.4181   2   8   0.0005   0.0006   0.0003  -0.0002   0.0002   0.0002   0.00    1.1
2022/02/01 02:13:00.000   4395951.1953   3080707.4201   3433498.4182   2   8   0.0005   0.0006   0.0003  -0.0002   0.0002   0.0002   0.00    1.1
2022/02/01 02:13:30.000   4395951.1953   3080707.4201   3433498.4182   2   8   0.0005   0.0006   0.0003  -0.0002   0.0002   0.0002   0.00    1.1
2022/02/01 02:14:00.000   4395951.1954   3080707.4201   3433498.4183   2   8   0.0005   0.0006   0.0003  -0.0002   0.0002   0.0002   0.00    1.1
2022/02/01 02:14:30.000   4395951.1954   3080707.4202   3433498.4184   2   8   0.0005   0.0006   0.0003  -0.0002   0.0002   0.0002   0.00    1.1
2022/02/01 02:15:00.000   4395951.1955   3080707.4202   3433498.4185   2   8   0.0005   0.0006   0.0003  -0.0002   0.0002   0.0002   0.00    1.1
2022/02/01 02:15:30.000   4395951.1955   3080707.4202   3433498.4185   2   8   0.0005   0.0006   0.0003  -0.0002   0.0002   0.0002   0.00    1.1
2022/02/01 02:16:00.000   4395951.1956   3080707.4203   3433498.4186   2   8   0.0005   0.0006   0.0003  -0.0002   0.0002   0.0002   0.00    1.1
2022/02/01 02:16:30.000   4395951.1956   3080707.4203   3433498.4187   2   8   0.0005   0.0006   0.0003  -0.0002   0.0002   0.0002   0.00    1.1
2022/02/01 02:17:00.000   4395951.1957   3080707.4204   3433498.4188   2   8   0.0005   0.0006   0.0003  -0.0002   0.0002   0.0002   0.00    1.1
2022/02/01 02:17:30.000   4395951.1958   3080707.4205   3433498.4189   2   8   0.0005   0.0006   0.0003  -0.0002   0.0002   0.0002   0.00    1.1
2022/02/01 02:18:00.000   4395951.1958   3080707.4206   3433498.4190   2   8   0.0005   0.0006   0.0003  -0.0002   0.0002   0.0002   0.00    1.1
2022/02/01 02:18:30.000   4395951.1959   3080707.4207   3433498.4191   2   8   0.0005   0.0006   0.0003  -0.0002   0.0002   0.0002   0.00    1.1
2022/02/01 02:19:00.000   4395951.1960   3080707.4208   3433498.4192   2   8   0.0005   0.0006   0.0003  -0.0002   0.0002   0.0002   0.00    1.1
2022/02/01 02:19:30.000   4395951.1961   3080707.4209   3433498.4193   2   8   0.0005   0.0006   0.0003  -0.0002   0.0002   0.0002   0.00    1.1
2022/02/01 02:20:00.000   4395951.1962   3080707.4211   3433498.4194   2   8   0.0005   0.0006   0.0003  -0.0002   0.0002   0.0002   0.00    1.1
2022/02/01 02:20:30.000   4395951.1962   3080707.4212   3433498.4195   2   8   0.0005   0.0006   0.0003  -0.0002   0.0002   0.0002   0.00    1.2
2022/02/01 02:21:00.000   4395951.1963   3080707.4214   3433498.4196   2   8   0.0005   0.0006   0.0003  -0.0002   0.0002   0.0002   0.00    1.2
2022/02/01 02:21:30.000   4395951.1963   3080707.4215   3433498.4197   2   8   0.0005   0.0006   0.0003  -0.0002   0.0002   0.0002   0.00    1.2
2022/02/01 02:22:00.000   4395951.1964   3080707.4217   3433498.4197   2   8   0.0005   0.0006   0.0003  -0.0002   0.0002   0.0002   0.00    1.2
2022/02/01 02:22:30.000   4395951.1965   3080707.4218   3433498.4198   2   8   0.0005   0.0006   0.0003  -0.0002   0.0002   0.0002   0.00    1.2
2022/02/01 02:23:00.000   4395951.1965   3080707.4220   3433498.4199   2   8   0.0005   0.0006   0.0003  -0.0002   0.0002   0.0002   0.00    1.2
2022/02/01 02:23:30.000   4395951.1966   3080707.4222   3433498.4200   2   8   0.0005   0.0006   0.0003  -0.0002   0.0002   0.0002   0.00    1.2
2022/02/01 02:24:00.000   4395951.1966   3080707.4224   3433498.4200   2   8   0.0005   0.0006   0.0003  -0.0002   0.0002   0.0002   0.00    1.2
2022/02/01 02:24:30.000   4395951.1967   3080707.4225   3433498.4201   2   8   0.0005   0.0006   0.0003  -0.0002   0.0002   0.0002   0.00    1.3
2022/02/01 02:25:00.000   4395951.1968   3080707.4227   3433498.4201   2   8   0.0005   0.0006   0.0003  -0.0002   0.0002   0.0002   0.00    1.3
2022/02/01 02:25:30.000   4395951.1968   3080707.4228   3433498.4202   2   8   0.0005   0.0006   0.0003  -0.0002   0.0002   0.0002   0.00    1.3
2022/02/01 02:26:00.000   4395951.1969   3080707.4230   3433498.4202   2   8   0.0005   0.0006   0.0003  -0.0002   0.0002   0.0002   0.00    1.3
2022/02/01 02:26:30.000   4395951.1970   3080707.4231   3433498.4203   2   8   0.0005   0.0006   0.0003  -0.0002   0.0002   0.0002   0.00    1.3
2022/02/01 02:27:00.000   4395951.1970   3080707.4233   3433498.4203   2   8   0.0005   0.0006   0.0003  -0.0002   0.0002   0.0002   0.00    1.3
2022/02/01 02:27:30.000   4395951.1971   3080707.4234   3433498.4204   2   8   0.0005   0.0006   0.0003  -0.0002   0.0002   0.0002   0.00    1.4
2022/02/01 02:28:00.000   4395951.1972   3080707.4236   3433498.4204   2   8   0.0005   0.0006   0.0003  -0.0002   0.0002   0.0002   0.00    1.4
2022/02/01 02:28:30.000   4395951.1973   3080707.4237   3433498.4205   2   8   0.0005   0.0006   0.0003  -0.0002   0.0002   0.0002   0.00    1.4
2022/02/01 02:29:00.000   4395951.1974   3080707.4238   3433498.4205   2   8   0.0005   0.0006   0.0003  -0.0002   0.0002   0.0002   0.00    1.4
2022/02/01 02:29:30.000   4395951.1975   3080707.4239   3433498.4205   2   8   0.0005   0.0006   0.0003  -0.0002   0.0002   0.0002   0.00    1.4
2022/02/01 02:30:00.000   4395951.1976   3080707.4240   3433498.4206   2   8   0.0005   0.0006   0.0003  -0.0002   0.0002   0.0002   0.00    1.4
2022/02/01 02:30:30.000   4395951.1977   3080707.4241   3433498.4206   2   8   0.0005   0.0006   0.0003  -0.0002   0.0002   0.0002   0.00    1.5
2022/02/01 02:31:00.000   4395951.1978   3080707.4241   3433498.4206   2   8   0.0005   0.0006   0.0003  -0.0002   0.0002   0.0002   0.00    1.5
2022/02/01 02:31:30.000   4395951.1979   3080707.4241   3433498.4206   2   8   0.0005   0.0006   0.0003  -0.0002   0.0002   0.0002   0.00    1.5
2022/02/01 02:32:00.000   4395951.1979   3080707.4241   3433498.4206   2   8   0.0005   0.0006   0.0003  -0.0002   0.0002   0.0002   0.00    1.5
2022/02/01 02:32:30.000   4395951.1980   3080707.4242   3433498.4206   2   8   0.0005   0.0006   0.0003  -0.0002   0.0002   0.0002   0.00    1.5
2022/02/01 02:33:00.000   4395951.1981   3080707.4242   3433498.4207   2   8   0.0005   0.0006   0.0003  -0.0002   0.0002   0.0002   0.00    1.5
2022/02/01 02:33:30.000   4395951.1981   3080707.4242   3433498.4207   2   9   0.0005   0.0006   0.0003  -0.0002   0.0002   0.0002   0.00    1.0
2022/02/01 02:34:00.000   4395951.1982   3080707.4242   3433498.4207   2   9   0.0005   0.0006   0.0003  -0.0002   0.0002   0.0002   0.00    1.0
2022/02/01 02:34:30.000   4395951.1982   3080707.4242   3433498.4207   2   9   0.0005   0.0006   0.0003  -0.0002   0.0002   0.0002   0.00    1.0
2022/02/01 02:35:00.000   4395951.1983   3080707.4242   3433498.4207   2   9   0.0005   0.0006   0.0003  -0.0002   0.0002   0.0002   0.00    1.0
2022/02/01 02:35:30.000   4395951.1983   3080707.4242   3433498.4207   2   9   0.0005   0.0006   0.0003  -0.0002   0.0002   0.0002   0.00    1.0
2022/02/01 02:36:00.000   4395951.1983   3080707.4242   3433498.4207   2   9   0.0005   0.0006   0.0003  -0.0002   0.0002   0.0002   0.00    1.0
2022/02/01 02:36:30.000   4395951.1984   3080707.4242   3433498.4207   2   9   0.0005   0.0006   0.0003  -0.0002   0.0002   0.0002   0.00    1.0
2022/02/01 02:37:00.000   4395951.1984   3080707.4242   3433498.4207   2   9   0.0005   0.0006   0.0003  -0.0002   0.0002   0.0002   0.00    1.0
2022/02/01 02:37:30.000   4395951.1984   3080707.4242   3433498.4207   2   9   0.0005   0.0006   0.0003  -0.0002   0.0002   0.0002   0.00    1.0
2022/02/01 02:38:00.000   4395951.1984   3080707.4242   3433498.4207   2   9   0.0005   0.0006   0.0003  -0.0002   0.0002   0.0002   0.00    1.0
2022/02/01 02:38:30.000   4395951.1984   3080707.4241   3433498.4207   2   9   0.0005   0.0006   0.0003  -0.0002   0.0002   0.0002   0.00    1.1
2022/02/01 02:39:00.000   4395951.1984   3080707.4241   3433498.4207   2   9   0.0005   0.0006   0.0003  -0.0002   0.0002   0.0002   0.00    1.1
2022/02/01 02:39:30.000   4395951.1984   3080707.4241   3433498.4207   2   9   0.0005   0.0006   0.0003  -0.0002   0.0002   0.0002   0.00    1.1
2022/02/01 02:40:00.000   4395951.1984   3080707.4241   3433498.4207   2   9   0.0005   0.0006   0.0003  -0.0002   0.0002   0.0002   0.00    1.1
2022/02/01 02:40:30.000   4395951.1984   3080707.4241   3433498.4207   2   9   0.0005   0.0006   0.0003  -0.0002   0.0002   0.0002   0.00    1.1
2022/02/01 02:41:00.000   4395951.1983   3080707.4242   3433498.4207   2   9   0.0005   0.0006   0.0003  -0.0002   0.0002   0.0002   0.00    1.1
2022/02/01 02:41:30.000   4395951.1983   3080707.4242   3433498.4208   2   9   0.0005   0.0006   0.0003  -0.0002   0.0002   0.0002   0.00    1.1
2022/02/01 02:42:00.000   4395951.1983   3080707.4242   3433498.4208   2   9   0.0005   0.0006   0.0003  -0.0002   0.0002   0.0002   0.00    1.1
2022/02/01 02:42:30.000   4395951.1983   3080707.4243   3433498.4208   2   9   0.0005   0.0006   0.0003  -0.0002   0.0002   0.0002   0.00    1.1
2022/02/01 02:43:00.000   4395951.1983   3080707.4244   3433498.4208   2   9   0.0005   0.0006   0.0003  -0.0002   0.0002   0.0002   0.00    1.1
2022/02/01 02:43:30.000   4395951.1982   3080707.4244   3433498.4208   2   9   0.0005   0.0006   0.0003  -0.0002   0.0002   0.0002   0.00    1.1
2022/02/01 02:44:00.000   4395951.1982   3080707.4245   3433498.4208   2   9   0.0005   0.0006   0.0003  -0.0002   0.0002   0.0002   0.00    1.1
2022/02/01 02:44:30.000   4395951.1982   3080707.4245   3433498.4208   2   9   0.0005   0.0006   0.0003  -0.0002   0.0002   0.0002   0.00    1.1
2022/02/01 02:45:00.000   4395951.1982   3080707.4246   3433498.4209   2   9   0.0005   0.0006   0.0003  -0.0002   0.0002   0.0002   0.00    1.1
2022/02/01 02:45:30.000   4395951.1982   3080707.4246   3433498.4209   2   9   0.0005   0.0006   0.0003  -0.0002   0.0002   0.0002   0.00    1.1
2022/02/01 02:46:00.000   4395951.1982   3080707.4247   3433498.4209   2   9   0.0005   0.0006   0.0003  -0.0002   0.0002   0.0002   0.00    1.1
2022/02/01 02:46:30.000   4395951.1982   3080707.4247   3433498.4209   2   9   0.0005   0.0006   0.0003  -0.0002   0.0002   0.0002   0.00    1.2
2022/02/01 02:47:00.000   4395951.1981   3080707.4248   3433498.4208   2   9   0.0005   0.0006   0.0003  -0.0002   0.0002   0.0002   0.00    1.2
2022/02/01 02:47:30.000   4395951.1981   3080707.4248   3433498.4208   2   9   0.0005   0.0006   0.0003  -0.0002   0.0002   0.0002   0.00    1.2
2022/02/01 02:48:00.000   4395951.1981   3080707.4248   3433498.4208   2   9   0.0005   0.0006   0.0003  -0.0002   0.0002   0.0002   0.00    1.2
2022/02/01 02:48:30.000   4395951.1981   3080707.4249   3433498.4208   2   9   0.0005   0.0006   0.0003  -0.0002   0.0002   0.0002   0.00    1.2
2022/02/01 02:49:00.000   4395951.1982   3080707.4250   3433498.4207   2   9   0.0005   0.0006   0.0003  -0.0002   0.0002   0.0002   0.00    1.2
2022/02/01 02:49:30.000   4395951.1982   3080707.4250   3433498.4207   2   9   0.0005   0.0006   0.0003  -0.0002   0.0002   0.0002   0.00    1.2
2022/02/01 02:50:00.000   4395951.1982   3080707.4251   3433498.4207   2   9   0.0005   0.0006   0.0003  -0.0002   0.0002   0.0002   0.00    1.2
2022/02/01 02:50:30.000   4395951.1982   3080707.4251   3433498.4206   2   8   0.0005   0.0006   0.0003  -0.0002   0.0002   0.0002   0.00    1.2
2022/02/01 02:51:00.000   4395951.1983   3080707.4252   3433498.4206   2   8   0.0005   0.0006   0.0003  -0.0002   0.0002   0.0002   0.00    1.3
2022/02/01 02:51:30.000   4395951.1983   3080707.4252   3433498.4206   2   8   0.0005   0.0006   0.0003  -0.0002   0.0002   0.0002   0.00    1.3
2022/02/01 02:52:00.000   4395951.1983   3080707.4253   3433498.4205   2   9   0.0005   0.0006   0.0003  -0.0002   0.0002   0.0002   0.00    1.0
2022/02/01 02:52:30.000   4395951.1984   3080707.4253   3433498.4205   2   9   0.0005   0.0006   0.0003  -0.0002   0.0002   0.0002   0.00    1.0
2022/02/01 02:53:00.000   4395951.1984   3080707.4253   3433498.4205   2   9   0.0005   0.0006   0.0003  -0.0002   0.0002   0.0002   0.00    1.0
2022/02/01 02:53:30.000   4395951.1985   3080707.4254   3433498.4205   2   9   0.0005   0.0006   0.0003  -0.0002   0.0002   0.0002   0.00    1.0
2022/02/01 02:54:00.000   4395951.1985   3080707.4254   3433498.4205   2   9   0.0005   0.0006   0.0003  -0.0002   0.0002   0.0002   0.00    1.0
2022/02/01 02:54:30.000   4395951.1986   3080707.4255   3433498.4205   2   9   0.0005   0.0006   0.0003  -0.0002   0.0002   0.0002   0.00    1.0
2022/02/01 02:55:00.000   4395951.1987   3080707.4256   3433498.4204   2   9   0.0005   0.0006   0.0003  -0.0002   0.0002   0.0002   0.00    1.0
2022/02/01 02:55:30.000   4395951.1987   3080707.4257   3433498.4204   2   9   0.0005   0.0006   0.0003  -0.0002   0.0002   0.0002   0.00    1.0
2022/02/01 02:56:00.000   4395951.1988   3080707.4257   3433498.4204   2   9   0.0005   0.0006   0.0003  -0.0002   0.0002   0.0002   0.00    1.1
2022/02/01 02:56:30.000   4395951.1989   3080707.4258   3433498.4204   2   9   0.0005   0.0006   0.0003  -0.0002   0.0002   0.0002   0.00    1.1
2022/02/01 02:57:00.000   4395951.1989   3080707.4258   3433498.4204   2   9   0.0005   0.0006   0.0003  -0.0002   0.0002   0.0002   0.00    1.1
2022/02/01 02:57:30.000   4395951.1990   3080707.4258   3433498.4204   2   9   0.0005   0.0006   0.0003  -0.0002   0.0002   0.0002   0.00    1.1
2022/02/01 02:58:00.000   4395951.1991   3080707.4258   3433498.4204   2   9   0.0005   0.0006   0.0003  -0.0002   0.0002   0.0002   0.00    1.1
2022/02/01 02:58:30.000   4395951.1992   3080707.4258   3433498.4203   2   9   0.0005   0.0006   0.0003  -0.0002   0.0002   0.0002   0.00    1.1
2022/02/01 02:59:00.000   4395951.1992   3080707.4258   3433498.4203   2   9   0.0005   0.0006   0.0003  -0.0002   0.0002   0.0002   0.00    1.1
2022/02/01 02:59:30.000   4395951.1993   3080707.4258   3433498.4203   2   9   0.0005   0.0006   0.0003  -0.0002   0.0002   0.0002   0.00    1.1
2022/02/01 03:00:00.000   4395951.1994   3080707.4258   3433498.4202   2   9   0.0005   0.0006   0.0003  -0.0002   0.0002   0.0002   0.00    1.1
2022/02/01 03:00:30.000   4395951.1995   3080707.4259   3433498.4202   2   9   0.0005   0.0006   0.0003  -0.0002   0.0002   0.0002   0.00    1.1
2022/02/01 03:01:00.000   4395951.1995   3080707.4259   3433498.4202   2   9   0.0005   0.0006   0.0003  -0.0002   0.0002   0.0002   0.00    1.1
2022/02/01 03:01:30.000   4395951.1996   3080707.4258   3433498.4201   2   9   0.0005   0.0006   0.0003  -0.0002   0.0002   0.0002   0.00    1.1
2022/02/01 03:02:00.000   4395951.1997   3080707.4258   3433498.4201   2   9   0.0005   0.0006   0.0003  -0.0002   0.0002   0.0002   0.00    1.1
2022/02/01 03:02:30.000   4395951.1998   3080707.4258   3433498.4200   2   9   0.0005   0.0006   0.0003  -0.0002   0.0002   0.0002   0.00    1.1
2022/02/01 03:03:00.000   4395951.1999   3080707.4257   3433498.4200   2   9   0.0005   0.0006   0.0003  -0.0002   0.0002   0.0002   0.00    1.1
2022/02/01 03:03:30.000   4395951.1999   3080707.4257   3433498.4200   2   9   0.0005   0.0006   0.0003  -0.0002   0.0002   0.0002   0.00    1.1
2022/02/01 03:04:00.000   4395951.2000   3080707.4256   3433498.4199   2   9   0.0005   0.0006   0.0003  -0.0002   0.0002   0.0002   0.00    1.1
2022/02/01 03:04:30.000   4395951.2001   3080707.4256   3433498.4199   2   9   0.0005   0.0006   0.0003  -0.0002   0.0002   0.0002   0.00    1.1
2022/02/01 03:05:00.000   4395951.2002   3080707.4255   3433498.4198   2   9   0.0005   0.0006   0.0003  -0.0002   0.0002   0.0002   0.00    1.1
2022/02/01 03:05:30.000   4395951.2002   3080707.4254   3433498.4198   2   9   0.0005   0.0006   0.0003  -0.0002   0.0002   0.0002   0.00    1.1
2022/02/01 03:06:00.000   4395951.2003   3080707.4253   3433498.4197   2   9   0.0005   0.0006   0.0003  -0.0002   0.0002   0.0002   0.00    1.1
2022/02/01 03:06:30.000   4395951.2004   3080707.4252   3433498.4197   2   9   0.0005   0.0006   0.0003  -0.0002   0.0002   0.0002   0.00    1.1
2022/02/01 03:07:00.000   4395951.2004   3080707.4252   3433498.4197   2   9   0.0005   0.0006   0.0003  -0.0002   0.0002   0.0002   0.00    1.1
2022/02/01 03:07:30.000   4395951.2005   3080707.4252   3433498.4197   2   9   0.0005   0.0006   0.0003  -0.0002   0.0002   0.0002   0.00    1.1
2022/02/01 03:08:00.000   4395951.2005   3080707.4252   3433498.4197   2   9   0.0005   0.0006   0.0003  -0.0002   0.0002   0.0002   0.00    1.1
2022/02/01 03:08:30.000   4395951.2006   3080707.4252   3433498.4197   2   9   0.0005   0.0006   0.0003  -0.0002   0.0002   0.0002   0.00    1.1
2022/02/01 03:09:00.000   4395951.2006   3080707.4251   3433498.4196   2   9   0.0005   0.0006   0.0003  -0.0002   0.0002   0.0002   0.00    1.2
2022/02/01 03:09:30.000   4395951.2007   3080707.4251   3433498.4196   2   9   0.0005   0.0006   0.0003  -0.0002   0.0002   0.0002   0.00    1.2
2022/02/01 03:10:00.000   4395951.2007   3080707.4250   3433498.4196   2   9   0.0005   0.0006   0.0003  -0.0002   0.0002   0.0002   0.00    1.2
2022/02/01 03:10:30.000   4395951.2008   3080707.4250   3433498.4196   2   9   0.0005   0.0006   0.0003  -0.0002   0.0002   0.0002   0.00    1.2
2022/02/01 03:11:00.000   4395951.2008   3080707.4249   3433498.4196   2   9   0.0005   0.0006   0.0003  -0.0002   0.0002   0.0002   0.00    1.2
2022/02/01 03:11:30.000   4395951.2008   3080707.4248   3433498.4195   2   9   0.0005   0.0006   0.0003  -0.0002   0.0002   0.0002   0.00    1.2
2022/02/01 03:12:00.000   4395951.2009   3080707.4247   3433498.4195   2   9   0.0005   0.0006   0.0003  -0.0002   0.0002   0.0002   0.00    1.2
2022/02/01 03:12:30.000   4395951.2009   3080707.4246   3433498.4195   2   9   0.0005   0.0006   0.0003  -0.0002   0.0002   0.0002   0.00    1.2
2022/02/01 03:13:00.000   4395951.2009   3080707.4246   3433498.4195   2   9   0.0005   0.0006   0.0003  -0.0002   0.0002   0.0002   0.00    1.2
2022/02/01 03:13:30.000   4395951.2010   3080707.4245   3433498.4195   2   9   0.0005   0.0006   0.0003  -0.0002   0.0002   0.0002   0.00    1.2
2022/02/01 03:14:00.000   4395951.2010   3080707.4245   3433498.4195   2   9   0.0005   0.0006   0.0003  -0.0002   0.0002   0.0002   0.00    1.2
2022/02/01 03:14:30.000   4395951.2011   3080707.4244   3433498.4195   2  10   0.0005   0.0006   0.0003  -0.0002   0.0002   0.0002   0.00    1.0
2022/02/01 03:15:00.000   4395951.2011   3080707.4243   3433498.4195   2   9   0.0005   0.0006   0.0003  -0.0002   0.0002   0.0002   0.00    1.0
2022/02/01 03:15:30.000   4395951.2012   3080707.4243   3433498.4195   2   9   0.0005   0.0006   0.0003  -0.0002   0.0002   0.0002   0.00    1.0
2022/02/01 03:16:00.000   4395951.2012   3080707.4242   3433498.4195   2   9   0.0005   0.0006   0.0003  -0.0002   0.0002   0.0002   0.00    1.0
2022/02/01 03:16:30.000   4395951.2013   3080707.4242   3433498.4195   2   9   0.0005   0.0006   0.0003  -0.0002   0.0002   0.0002   0.00    1.0
2022/02/01 03:17:00.000   4395951.2014   3080707.4241   3433498.4196   2   9   0.0005   0.0006   0.0003  -0.0002   0.0002   0.0002   0.00    1.0
2022/02/01 03:17:30.000   4395951.2014   3080707.4241   3433498.4196   2   9   0.0005   0.0006   0.0003  -0.0002   0.0002   0.0002   0.00    1.0
2022/02/01 03:18:00.000   4395951.2015   3080707.4240   3433498.4196   2   9   0.0005   0.0006   0.0003  -0.0002   0.0002   0.0002   0.00    1.0
2022/02/01 03:18:30.000   4395951.2015   3080707.4239   3433498.4196   2   9   0.0005   0.0006   0.0003  -0.0002   0.0002   0.0002   0.00    1.0
2022/02/01 03:19:00.000   4395951.2016   3080707.4238   3433498.4197   2   9   0.0005   0.0006   0.0003  -0.0002   0.0002   0.0002   0.00    1.0
2022/02/01 03:19:30.000   4395951.2017   3080707.4238   3433498.4197   2   9   0.0005   0.0006   0.0003  -0.0002   0.0002   0.0002   0.00    1.0
2022/02/01 03:20:00.000   4395951.2017   3080707.4237   3433498.4197   2   9   0.0005   0.0006   0.0003  -0.0002   0.0002   0.0002   0.00    1.0
2022/02/01 03:20:30.000   4395951.2018   3080707.4236   3433498.4197   2   9   0.0005   0.0006   0.0003  -0.0002   0.0002   0.0002   0.00    1.0
2022/02/01 03:21:00.000   4395951.2018   3080707.4235   3433498.4197   2   9   0.0005   0.0006   0.0003  -0.0002   0.0002   0.0002   0.00    1.0
2022/02/01 03:21:30.000   4395951.2018   3080707.4234   3433498.4197   2   9   0.0005   0.0006   0.0003  -0.0002   0.0002   0.0002   0.00    1.0
2022/02/01 03:22:00.000   4395951.2019   3080707.4233   3433498.4196   2   9   0.0005   0.0006   0.0003  -0.0002   0.0002   0.0002   0.00    1.0
2022/02/01 03:22:30.000   4395951.2020   3080707.4231   3433498.4196   2   9   0.0005   0.0006   0.0003  -0.0002   0.0002   0.0002   0.00    1.0
2022/02/01 03:23:00.000   4395951.2020   3080707.4230   3433498.4196   2   9   0.0005   0.0006   0.0003  -0.0002   0.0002   0.0002   0.00    1.0
2022/02/01 03:23:30.000   4395951.2021   3080707.4228   3433498.4197   2   9   0.0005   0.0006   0.0003  -0.0002   0.0002   0.0002   0.00    1.0
2022/02/01 03:24:00.000   4395951.2022   3080707.4227   3433498.4197   2   9   0.0005   0.0006   0.0003  -0.0002   0.0002   0.0002   0.00    1.0
2022/02/01 03:24:30.000   4395951.2022   3080707.4225   3433498.4197   2   9   0.0005   0.0006   0.0003  -0.0002   0.0002   0.0002   0.00    1.0
2022/02/01 03:25:00.000   4395951.2023   3080707.4223   3433498.4197   2   9   0.0005   0.0006   0.0003  -0.0002   0.0002   0.0002   0.00    1.0
2022/02/01 03:25:30.000   4395951.2023   3080707.4222   3433498.4197   2   9   0.0005   0.0006   0.0003  -0.0002   0.0002   0.0002   0.00    1.0
2022/02/01 03:26:00.000   4395951.2024   3080707.4221   3433498.4197   2   9   0.0005   0.0006   0.0003  -0.0002   0.0002   0.0002   0.00    1.0
2022/02/01 03:26:30.000   4395951.2024   3080707.4220   3433498.4197   2   8   0.0005   0.0006   0.0003  -0.0002   0.0002   0.0002   0.00    1.1
2022/02/01 03:27:00.000   4395951.2024   3080707.4220   3433498.4197   2   8   0.0005   0.0006   0.0003  -0.0002   0.0002   0.0002   0.00    1.1
2022/02/01 03:27:30.000   4395951.2025   3080707.4219   3433498.4197   2   8   0.0005   0.0006   0.0003  -0.0002   0.0002   0.0002   0.00    1.0
2022/02/01 03:28:00.000   4395951.2025   3080707.4218   3433498.4198   2  10   0.0005   0.0006   0.0003  -0.0002   0.0002   0.0002   0.00    1.0
2022/02/01 03:28:30.000   4395951.2025   3080707.4218   3433498.4198   2  10   0.0005   0.0006   0.0003  -0.0002   0.0002   0.0002   0.00    1.0
2022/02/01 03:29:00.000   4395951.2026   3080707.4217   3433498.4198   2  10   0.0005   0.0006   0.0003  -0.0002   0.0002   0.0002   0.00    1.0
2022/02/01 03:29:30.000   4395951.2026   3080707.4216   3433498.4198   2  10   0.0005   0.0006   0.0003  -0.0002   0.0002   0.0002   0.00    1.0
2022/02/01 03:30:00.000   4395951.2026   3080707.4214   3433498.4197   2  10   0.0005   0.0006   0.0003  -0.0002   0.0002   0.0002   0.00    1.0
2022/02/01 03:30:30.000   4395951.2026   3080707.4213   3433498.4197   2  10   0.0005   0.0006   0.0003  -0.0002   0.0002   0.0002   0.00    1.0
2022/02/01 03:31:00.000   4395951.2027   3080707.4212   3433498.4197   2  10   0.0005   0.0006   0.0003  -0.0002   0.0002   0.0002   0.00    1.0
2022/02/01 03:31:30.000   4395951.2027   3080707.4211   3433498.4197   2  10   0.0005   0.0006   0.0003  -0.0002   0.0002   0.0002   0.00    1.0
2022/02/01 03:32:00.000   4395951.2027   3080707.4211   3433498.4197   2  10   0.0005   0.0006   0.0003  -0.0002   0.0002   0.0002   0.00    1.0
2022/02/01 03:32:30.000   4395951.2027   3080707.4210   3433498.4197   2  10   0.0005   0.0006   0.0003  -0.0002   0.0002   0.0002   0.00    1.0
2022/02/01 03:33:00.000   4395951.2027   3080707.4209   3433498.4197   2  10   0.0005   0.0006   0.0003  -0.0002   0.0002   0.0002   0.00    1.0
2022/02/01 03:33:30.000   4395951.2027   3080707.4209   3433498.4197   2  10   0.0005   0.0006   0.0003  -0.0002   0.0002   0.0002   0.00    1.0
2022/02/01 03:34:00.000   4395951.2027   3080707.4208   3433498.4197   2  10   0.0005   0.0006   0.0003  -0.0002   0.0002   0.0002   0.00    1.0
2022/02/01 03:34:30.000   4395951.2027   3080707.4207   3433498.4198   2  10   0.0005   0.0006   0.0003  -0.0002   0.0002   0.0002   0.00    1.0
2022/02/01 03:35:00.000   4395951.2027   3080707.4205   3433498.4198   2  10   0.0005   0.0006   0.0003  -0.0002   0.0002   0.0002   0.00    1.0
2022/02/01 03:35:30.000   4395951.2027   3080707.4204   3433498.4198   2  10   0.0005   0.0006   0.0003  -0.0002   0.0002   0.0002   0.00    1.0
2022/02/01 03:36:00.000   4395951.2027   3080707.4203   3433498.4198   2  10   0.0005   0.0006   0.0003  -0.0002   0.0002   0.0002   0.00    1.1
2022/02/01 03:36:30.000   4395951.2027   3080707.4202   3433498.4198   2  10   0.0005   0.0006   0.0003  -0.0002   0.0002   0.0002   0.00    1.1
2022/02/01 03:37:00.000   4395951.2027   3080707.4201   3433498.4198   2  10   0.0005   0.0006   0.0003  -0.0002   0.0002   0.0002   0.00    1.1
2022/02/01 03:37:30.000   4395951.2027   3080707.4201   3433498.4198   2   9   0.0005   0.0006   0.0003  -0.0002   0.0002   0.0002   0.00    1.1
2022/02/01 03:38:00.000   4395951.2027   3080707.4200   3433498.4198   2   9   0.0005   0.0006   0.0003  -0.0002   0.0002   0.0002   0.00    1.1
2022/02/01 03:38:30.000   4395951.2026   3080707.4199   3433498.4198   2   9   0.0005   0.0006   0.0003  -0.0002   0.0002   0.0002   0.00    1.2
2022/02/01 03:39:00.000   4395951.2026   3080707.4199   3433498.4198   2   9   0.0005   0.0006   0.0003  -0.0002   0.0002   0.0002   0.00    1.2
2022/02/01 03:39:30.000   4395951.2026   3080707.4198   3433498.4198   2   9   0.0005   0.0006   0.0003  -0.0002   0.0002   0.0002   0.00    1.2
2022/02/01 03:40:00.000   4395951.2026   3080707.4197   3433498.4198   2   9   0.0005   0.0006   0.0003  -0.0002   0.0002   0.0002   0.00    1.2
2022/02/01 03:40:30.000   4395951.2026   3080707.4196   3433498.4198   2   9   0.0005   0.0006   0.0003  -0.0002   0.0002   0.0002   0.00    1.3
2022/02/01 03:41:00.000   4395951.2026   3080707.4195   3433498.4198   2   9   0.0005   0.0006   0.0003  -0.0002   0.0002   0.0002   0.00    1.3
2022/02/01 03:41:30.000   4395951.2025   3080707.4194   3433498.4197   2   9   0.0005   0.0006   0.0003  -0.0002   0.0002   0.0002   0.00    1.3
2022/02/01 03:42:00.000   4395951.2025   3080707.4193   3433498.4197   2   9   0.0005   0.0006   0.0003  -0.0002   0.0002   0.0002   0.00    1.4
2022/02/01 03:42:30.000   4395951.2025   3080707.4193   3433498.4197   2   9   0.0005   0.0006   0.0003  -0.0002   0.0002   0.0002   0.00    1.4
2022/02/01 03:43:00.000   4395951.2024   3080707.4192   3433498.4196   2   9   0.0005   0.0006   0.0003  -0.0002   0.0002   0.0002   0.00    1.4
2022/02/01 03:43:30.000   4395951.2024   3080707.4191   3433498.4196   2   9   0.0005   0.0006   0.0003  -0.0002   0.0002   0.0002   0.00    1.4
2022/02/01 03:44:00.000   4395951.2024   3080707.4190   3433498.4195   2   9   0.0005   0.0006   0.0003  -0.0002   0.0002   0.0002   0.00    1.5
2022/02/01 03:44:30.000   4395951.2024   3080707.4189   3433498.4195   2   9   0.0005   0.0006   0.0003  -0.0002   0.0002   0.0002   0.00    1.5
2022/02/01 03:45:00.000   4395951.2024   3080707.4188   3433498.4194   2   9   0.0005   0.0006   0.0003  -0.0002   0.0002   0.0002   0.00    1.5
2022/02/01 03:45:30.000   4395951.2024   3080707.4186   3433498.4194   2   9   0.0005   0.0006   0.0003  -0.0002   0.0002   0.0002   0.00    1.5
2022/02/01 03:46:00.000   4395951.2024   3080707.4185   3433498.4194   2   9   0.0005   0.0006   0.0003  -0.0002   0.0002   0.0002   0.00    1.5
2022/02/01 03:46:30.000   4395951.2024   3080707.4184   3433498.4193   2   9   0.0005   0.0006   0.0003  -0.0002   0.0002   0.0002   0.00    1.6
2022/02/01 03:47:00.000   4395951.2024   3080707.4183   3433498.4193   2   9   0.0005   0.0006   0.0003  -0.0002   0.0002   0.0002   0.00    1.6
2022/02/01 03:47:30.000   4395951.2024   3080707.4181   3433498.4193   2   9   0.0005   0.0006   0.0003  -0.0002   0.0002   0.0002   0.00    1.6
2022/02/01 03:48:00.000   4395951.2024   3080707.4180   3433498.4192   2   9   0.0005   0.0006   0.0003  -0.0002   0.0002   0.0002   0.00    1.6
2022/02/01 03:48:30.000   4395951.2024   3080707.4179   3433498.4192   2   9   0.0005   0.0006   0.0003  -0.0002   0.0002   0.0002   0.00    1.6
2022/02/01 03:49:00.000   4395951.2024   3080707.4178   3433498.4191   2   9   0.0005   0.0006   0.0003  -0.0002   0.0002   0.0002   0.00    1.7
2022/02/01 03:49:30.000   4395951.2024   3080707.4177   3433498.4191   2   9   0.0005   0.0006   0.0003  -0.0002   0.0002   0.0002   0.00    1.7
2022/02/01 03:50:00.000   4395951.2024   3080707.4176   3433498.4191   2   9   0.0005   0.0006   0.0003  -0.0002   0.0002   0.0002   0.00    1.7
2022/02/01 03:50:30.000   4395951.2024   3080707.4174   3433498.4190   2   9   0.0005   0.0006   0.0003  -0.0002   0.0002   0.0002   0.00    1.8
2022/02/01 03:51:00.000   4395951.2024   3080707.4173   3433498.4190   2   9   0.0005   0.0006   0.0003  -0.0002   0.0002   0.0002   0.00    1.8
2022/02/01 03:51:30.000   4395951.2024   3080707.4172   3433498.4190   2   9   0.0005   0.0006   0.0003  -0.0002   0.0002   0.0002   0.00    1.8
2022/02/01 03:52:00.000   4395951.2024   3080707.4171   3433498.4190   2   9   0.0005   0.0006   0.0003  -0.0002   0.0002   0.0002   0.00    1.8
2022/02/01 03:52:30.000   4395951.2024   3080707.4170   3433498.4190   2   9   0.0005   0.0006   0.0003  -0.0002   0.0002   0.0002   0.00    1.9
2022/02/01 03:53:00.000   4395951.2024   3080707.4169   3433498.4190   2   9   0.0005   0.0006   0.0003  -0.0002   0.0002   0.0002   0.00    1.9
2022/02/01 03:53:30.000   4395951.2024   3080707.4168   3433498.4190   2   9   0.0005   0.0006   0.0003  -0.0002   0.0002   0.0002   0.00    1.9
2022/02/01 03:54:00.000   4395951.2024   3080707.4168   3433498.4189   2   9   0.0005   0.0006   0.0003  -0.0002   0.0002   0.0002   0.00    2.0
2022/02/01 03:54:30.000   4395951.2025   3080707.4167   3433498.4189   2   9   0.0005   0.0006   0.0003  -0.0002   0.0002   0.0002   0.00    2.0
2022/02/01 03:55:00.000   4395951.2025   3080707.4166   3433498.4189   2   9   0.0005   0.0006   0.0003  -0.0002   0.0002   0.0002   0.00    2.0
2022/02/01 03:55:30.000   4395951.2025   3080707.4166   3433498.4189   2   9   0.0005   0.0006   0.0003  -0.0002   0.0002   0.0002   0.00    2.0
2022/02/01 03:56:00.000   4395951.2025   3080707.4165   3433498.4189   2   9   0.0005   0.0006   0.0003  -0.0002   0.0002   0.0002   0.00    2.0
2022/02/01 03:56:30.000   4395951.2026   3080707.4165   3433498.4189   2   9   0.0005   0.0006   0.0003  -0.0002   0.0002   0.0002   0.00    1.0
2022/02/01 03:57:00.000   4395951.2026   3080707.4165   3433498.4188   2   9   0.0005   0.0006   0.0003  -0.0002   0.0002   0.0002   0.00    1.0
2022/02/01 03:57:30.000   4395951.2026   3080707.4164   3433498.4188   2   9   0.0005   0.0006   0.0003  -0.0002   0.0002   0.0002   0.00    1.0
2022/02/01 03:58:00.000   4395951.2027   3080707.4164   3433498.4188   2   8   0.0005   0.0006   0.0003  -0.0002   0.0002   0.0002   0.00    2.1
2022/02/01 03:58:30.000   4395951.2027   3080707.4164   3433498.4188   2   8   0.0005   0.0006   0.0003  -0.0002   0.0002   0.0002   0.00    2.1
2022/02/01 03:59:00.000   4395951.2028   3080707.4163   3433498.4188   2   8   0.0005   0.0006   0.0003  -0.0002   0.0002   0.0002   0.00    2.1
2022/02/01 03:59:30.000   4395951.2028   3080707.4163   3433498.4188   2   8   0.0005   0.0006   0.0003  -0.0002   0.0002   0.0002   0.00    2.1
2022/02/01 04:00:00.000   4395951.2028   3080707.4163   3433498.4188   2   8   0.0005   0.0006   0.0003  -0.0002   0.0002   0.0002   0.00    2.1
2022/02/01 04:00:30.000   4395951.2029   3080707.4162   3433498.4188   2   8   0.0005   0.0006   0.0003  -0.0002   0.0002   0.0002   0.00    2.1
2022/02/01 04:01:00.000   4395951.2029   3080707.4162   3433498.4188   2   8   0.0005   0.0006   0.0003  -0.0002   0.0002   0.0002   0.00    2.1
2022/02/01 04:01:30.000   4395951.2030   3080707.4161   3433498.4188   2   8   0.0005   0.0006   0.0003  -0.0002   0.0002   0.0002   0.00    2.0
2022/02/01 04:02:00.000   4395951.2031   3080707.4160   3433498.4188   2   8   0.0005   0.0006   0.0003  -0.0002   0.0002   0.0002   0.00    2.0
2022/02/01 04:02:30.000   4395951.2032   3080707.4159   3433498.4188   2   8   0.0005   0.0006   0.0003  -0.0002   0.0002   0.0002   0.00    2.0
2022/02/01 04:03:00.000   4395951.2032   3080707.4158   3433498.4188   2   8   0.0005   0.0006   0.0003  -0.0002   0.0002   0.0002   0.00    2.0
2022/02/01 04:03:30.000   4395951.2033   3080707.4157   3433498.4188   2   8   0.0005   0.0006   0.0003  -0.0002   0.0002   0.0002   0.00    2.0
2022/02/01 04:04:00.000   4395951.2034   3080707.4156   3433498.4188   2   8   0.0005   0.0006   0.0003  -0.0002   0.0002   0.0002   0.00    2.0
2022/02/01 04:04:30.000   4395951.2034   3080707.4155   3433498.4188   2   8   0.0005   0.0006   0.0003  -0.0002   0.0002   0.0002   0.00    2.0
2022/02/01 04:05:00.000   4395951.2035   3080707.4154   3433498.4188   2   8   0.0005   0.0006   0.0003  -0.0002   0.0002   0.0002   0.00    2.0
2022/02/01 04:05:30.000   4395951.2035   3080707.4153   3433498.4187   2   8   0.0005   0.0006   0.0003  -0.0002   0.0002   0.0002   0.00    2.0
2022/02/01 04:06:00.000   4395951.2036   3080707.4152   3433498.4187   2   8   0.0005   0.0006   0.0003  -0.0002   0.0002   0.0002   0.00    2.0
2022/02/01 04:06:30.000   4395951.2036   3080707.4151   3433498.4187   2   8   0.0005   0.0006   0.0003  -0.0002   0.0002   0.0002   0.00    2.0
2022/02/01 04:07:00.000   4395951.2037   3080707.4151   3433498.4187   2   8   0.0005   0.0006   0.0003  -0.0002   0.0002   0.0002   0.00    2.0
2022/02/01 04:07:30.000   4395951.2037   3080707.4150   3433498.4188   2   8   0.0005   0.0006   0.0003  -0.0002   0.0002   0.0002   0.00    2.0
2022/02/01 04:08:00.000   4395951.2038   3080707.4149   3433498.4188   2   8   0.0005   0.0006   0.0003  -0.0002   0.0002   0.0002   0.00    2.0
2022/02/01 04:08:30.000   4395951.2038   3080707.4149   3433498.4188   2   8   0.0005   0.0006   0.0003  -0.0002   0.0002   0.0002   0.00    2.0
2022/02/01 04:09:00.000   4395951.2039   3080707.4148   3433498.4188   2   8   0.0005   0.0006   0.0003  -0.0002   0.0002   0.0002   0.00    2.0
2022/02/01 04:09:30.000   4395951.2039   3080707.4148   3433498.4189   2   8   0.0005   0.0006   0.0003  -0.0002   0.0002   0.0002   0.00    2.0
2022/02/01 04:10:00.000   4395951.2040   3080707.4147   3433498.4189   2   8   0.0005   0.0006   0.0003  -0.0002   0.0002   0.0002   0.00    2.0
2022/02/01 04:10:30.000   4395951.2040   3080707.4147   3433498.4189   2   8   0.0005   0.0006   0.0003  -0.0002   0.0002   0.0002   0.00    2.0
2022/02/01 04:11:00.000   4395951.2040   3080707.4147   3433498.4189   2   8   0.0005   0.0006   0.0003  -0.0002   0.0002   0.0002   0.00    2.0
2022/02/01 04:11:30.000   4395951.2040   3080707.4148   3433498.4190   2   8   0.0005   0.0006   0.0003  -0.0002   0.0002   0.0002   0.00    2.0
2022/02/01 04:12:00.000   4395951.2040   3080707.4148   3433498.4190   2   8   0.0005   0.0006   0.0003  -0.0002   0.0002   0.0002   0.00    2.0
2022/02/01 04:12:30.000   4395951.2040   3080707.4149   3433498.4190   2   8   0.0005   0.0006   0.0003  -0.0002   0.0002   0.0002   0.00    2.0
2022/02/01 04:13:00.000   4395951.2040   3080707.4149   3433498.4190   2   8   0.0005   0.0006   0.0003  -0.0002   0.0002   0.0002   0.00    2.0
2022/02/01 04:13:30.000   4395951.2040   3080707.4150   3433498.4190   2   8   0.0005   0.0006   0.0003  -0.0002   0.0002   0.0002   0.00    2.0
2022/02/01 04:14:00.000   4395951.2039   3080707.4151   3433498.4190   2   8   0.0005   0.0006   0.0003  -0.0002   0.0002   0.0002   0.00    2.0
2022/02/01 04:14:30.000   4395951.2039   3080707.4151   3433498.4191   2   8   0.0005   0.0006   0.0003  -0.0002   0.0002   0.0002   0.00    2.0
2022/02/01 04:15:00.000   4395951.2039   3080707.4152   3433498.4191   2   8   0.0005   0.0006   0.0003  -0.0002   0.0002   0.0002   0.00    2.0
2022/02/01 04:15:30.000   4395951.2039   3080707.4153   3433498.4192   2   8   0.0005   0.0006   0.0003  -0.0002   0.0002   0.0002   0.00    2.0
2022/02/01 04:16:00.000   4395951.2039   3080707.4154   3433498.4192   2   8   0.0005   0.0006   0.0003  -0.0002   0.0002   0.0002   0.00    2.0
2022/02/01 04:16:30.000   4395951.2039   3080707.4154   3433498.4192   2   8   0.0005   0.0006   0.0003  -0.0002   0.0002   0.0002   0.00    2.0
2022/02/01 04:17:00.000   4395951.2039   3080707.4154   3433498.4193   2   8   0.0005   0.0006   0.0003  -0.0002   0.0002   0.0002   0.00    1.9
2022/02/01 04:17:30.000   4395951.2039   3080707.4155   3433498.4193   2   8   0.0005   0.0006   0.0003  -0.0002   0.0002   0.0002   0.00    1.9
2022/02/01 04:18:00.000   4395951.2040   3080707.4155   3433498.4194   2   8   0.0005   0.0006   0.0003  -0.0002   0.0002   0.0002   0.00    1.9
2022/02/01 04:18:30.000   4395951.2040   3080707.4155   3433498.4194   2   8   0.0005   0.0006   0.0003  -0.0002   0.0002   0.0002   0.00    1.9
2022/02/01 04:19:00.000   4395951.2040   3080707.4156   3433498.4195   2   8   0.0005   0.0006   0.0003  -0.0002   0.0002   0.0002   0.00    1.9
2022/02/01 04:19:30.000   4395951.2040   3080707.4156   3433498.4195   2   8   0.0005   0.0006   0.0003  -0.0002   0.0002   0.0002   0.00    1.9
2022/02/01 04:20:00.000   4395951.2040   3080707.4157   3433498.4195   2   8   0.0005   0.0006   0.0003  -0.0002   0.0002   0.0002   0.00    1.9
2022/02/01 04:20:30.000   4395951.2040   3080707.4157   3433498.4196   2   8   0.0005   0.0006   0.0003  -0.0002   0.0002   0.0002   0.00    1.9
2022/02/01 04:21:00.000   4395951.2040   3080707.4158   3433498.4196   2   8   0.0005   0.0006   0.0003  -0.0002   0.0002   0.0002   0.00    1.9
2022/02/01 04:21:30.000   4395951.2040   3080707.4159   3433498.4197   2   8   0.0005   0.0006   0.0003  -0.0002   0.0002   0.0002   0.00    1.9
